{
    "data": {
        "landmarks": [{
            "id": 20385,
            "status": 1,
            "name": "左云汽车站",
            "slug": "zuoyunqichezhan",
            "type": 8,
            "poi": [{
                "id": "B01600MFEC",
                "name": "左云汽车站",
                "type": "交通设施服务;长途汽车站;长途汽车站",
                "location": {
                    "w": 40.021787,
                    "r": 112.713931,
                    "lng": 112.713931,
                    "lat": 40.021787
                },
                "address": "210省道",
                "tel": "",
                "distance": null
            }, {
                "id": "B01600MGYC",
                "name": "左云汽车站稽查补票点",
                "type": "生活服务;售票处;长途汽车票代售点",
                "location": {
                    "w": 39.994455,
                    "r": 112.70765799999998,
                    "lng": 112.707658,
                    "lat": 39.994455
                },
                "address": "210省道附近",
                "tel": "",
                "distance": null
            }]
        }, {
            "id": 20384,
            "status": 1,
            "name": "左云县人民医院",
            "slug": "zuoyunxianrenminyiyuan",
            "type": 5,
            "poi": [{
                "id": "B0160007U6",
                "name": "左云县人民医院",
                "type": "医疗保健服务;综合医院;综合医院",
                "location": {
                    "w": 40.014084,
                    "r": 112.71362699999997,
                    "lng": 112.713627,
                    "lat": 40.014084
                },
                "address": "云新东大街",
                "tel": "0352-3823182",
                "distance": null
            }, {
                "id": "B01600MUV0",
                "name": "左云县人民医院-急诊",
                "type": "医疗保健服务;医疗保健服务场所;医疗保健服务场所",
                "location": {
                    "w": 40.014358,
                    "r": 112.71321,
                    "lng": 112.71321,
                    "lat": 40.014358
                },
                "address": "云新东大街115附近",
                "tel": "",
                "distance": null
            }, {
                "id": "B016000FKW",
                "name": "米琪面包房(左云县人民医院西)",
                "type": "餐饮服务;糕饼店;糕饼店",
                "location": {
                    "w": 40.014115,
                    "r": 112.71402899999998,
                    "lng": 112.714029,
                    "lat": 40.014115
                },
                "address": "云新东大街",
                "tel": "",
                "distance": null
            }, {
                "id": "B01600MW0X",
                "name": "金嘉乐超市",
                "type": "购物服务;超级市场;超市",
                "location": {
                    "w": 40.014183,
                    "r": 112.71355,
                    "lng": 112.71355,
                    "lat": 40.014183
                },
                "address": "人民医院旁",
                "tel": "",
                "distance": null
            }, {
                "id": "B016000F2T",
                "name": "益康大药房(云新东大街)",
                "type": "医疗保健服务;医药保健销售店;药房",
                "location": {
                    "w": 40.01364,
                    "r": 112.71362799999997,
                    "lng": 112.713628,
                    "lat": 40.01364
                },
                "address": "云新东大街",
                "tel": "",
                "distance": null
            }, {
                "id": "B01600MLTD",
                "name": "安踏(云新东大街)",
                "type": "购物服务;体育用品店;体育用品店",
                "location": {
                    "w": 40.013777,
                    "r": 112.71523000000002,
                    "lng": 112.71523,
                    "lat": 40.013777
                },
                "address": "云新东大街84附近",
                "tel": "",
                "distance": null
            }, {
                "id": "B0FFFXK3U7",
                "name": "柒牌",
                "type": "购物服务;服装鞋帽皮具店;品牌服装店",
                "location": {
                    "w": 40.013705,
                    "r": 112.71428600000002,
                    "lng": 112.714286,
                    "lat": 40.013705
                },
                "address": "云兴镇云兴东大街",
                "tel": "",
                "distance": null
            }]
        }, {
            "id": 20387,
            "status": 1,
            "name": "新万人商厦",
            "slug": "xinwanrenshangsha",
            "type": 6,
            "poi": [{
                "id": "B01600MIFZ",
                "name": "新万人商厦",
                "type": "购物服务;商场;普通商场",
                "location": {
                    "w": 39.763545,
                    "r": 114.28041000000002,
                    "lng": 114.28041,
                    "lat": 39.763545
                },
                "address": "延陵路附近",
                "tel": "",
                "distance": null
            }, {
                "id": "B01600MJME",
                "name": "万人商厦(新华南街)",
                "type": "购物服务;商场;普通商场",
                "location": {
                    "w": 40.360915,
                    "r": 113.74723399999999,
                    "lng": 113.747234,
                    "lat": 40.360915
                },
                "address": "新华南街268号附近",
                "tel": "",
                "distance": null
            }, {
                "id": "B0160008FO",
                "name": "宇雁宾馆",
                "type": "住宿服务;宾馆酒店;宾馆酒店",
                "location": {
                    "w": 40.03719,
                    "r": 113.177615,
                    "lng": 113.177615,
                    "lat": 40.03719
                },
                "address": "新万人商厦旁",
                "tel": "0352-7050777;0352-4027500",
                "distance": null
            }, {
                "id": "B01600MJB8",
                "name": "柒牌男装(新华街)",
                "type": "购物服务;服装鞋帽皮具店;品牌服装店",
                "location": {
                    "w": 39.439896,
                    "r": 114.23877800000002,
                    "lng": 114.238778,
                    "lat": 39.439896
                },
                "address": "新华街万人商厦",
                "tel": "",
                "distance": null
            }, {
                "id": "B0FFFEVAKK",
                "name": "农行家属楼(新华街)",
                "type": "商务住宅;住宅区;宿舍",
                "location": {
                    "w": 39.440073,
                    "r": 114.23718300000002,
                    "lng": 114.237183,
                    "lat": 39.440073
                },
                "address": "万人商厦对面",
                "tel": "",
                "distance": null
            }, {
                "id": "B0FFFBZ8OD",
                "name": "新华鑫面包坊四部",
                "type": "餐饮服务;餐饮相关场所;餐饮相关",
                "location": {
                    "w": 40.037457,
                    "r": 113.17801400000002,
                    "lng": 113.178014,
                    "lat": 40.037457
                },
                "address": "矿务局万人商厦佳家玛超市内",
                "tel": "13834026435",
                "distance": null
            }, {
                "id": "B0FFFALK89",
                "name": "清馨美甲",
                "type": "生活服务;美容美发店;美容美发店",
                "location": {
                    "w": 40.03749,
                    "r": 113.17803000000004,
                    "lng": 113.17803,
                    "lat": 40.03749
                },
                "address": "矿务局新万人百货1楼(雁宇商厦)",
                "tel": "13754901864",
                "distance": null
            }]
        }, {
            "id": 20386,
            "status": 1,
            "name": "东山森林公园",
            "slug": "dongshansenlingongyuan",
            "type": 3,
            "poi": [{
                "id": "B01600MLSM",
                "name": "东山森林公园",
                "type": "风景名胜;风景名胜;风景名胜",
                "location": {
                    "w": 40.018182,
                    "r": 112.73097899999999,
                    "lng": 112.730979,
                    "lat": 40.018182
                },
                "address": "卫生局附近",
                "tel": "",
                "distance": null
            }, {
                "id": "B01600MLSJ",
                "name": "东山森林公园(北门)",
                "type": "风景名胜;风景名胜;风景名胜",
                "location": {
                    "w": 40.018871,
                    "r": 112.73092500000001,
                    "lng": 112.730925,
                    "lat": 40.018871
                },
                "address": "卫生局附近",
                "tel": "",
                "distance": null
            }]
        }, {
            "id": 20389,
            "status": 1,
            "name": "广灵汽车站",
            "slug": "guanglingqichezhan",
            "type": 8,
            "poi": [{
                "id": "B01600MFDW",
                "name": "广灵汽车站",
                "type": "交通设施服务;长途汽车站;长途汽车站",
                "location": {
                    "w": 39.75936,
                    "r": 114.26239099999998,
                    "lng": 114.262391,
                    "lat": 39.75936
                },
                "address": "303省道附近",
                "tel": "",
                "distance": null
            }]
        }, {
            "id": 20388,
            "status": 1,
            "name": "广灵县人民医院",
            "slug": "guanglingxianrenminyiyuan",
            "type": 5,
            "poi": [{
                "id": "B0160002WW",
                "name": "广灵县人民医院",
                "type": "医疗保健服务;综合医院;综合医院",
                "location": {
                    "w": 39.765838,
                    "r": 114.28421000000003,
                    "lng": 114.28421,
                    "lat": 39.765838
                },
                "address": "新建路北大街",
                "tel": "0352-8822227",
                "distance": null
            }, {
                "id": "B0FFFEVCUG",
                "name": "广灵县人民医院门诊部",
                "type": "医疗保健服务;医疗保健服务场所;医疗保健服务场所",
                "location": {
                    "w": 39.765608,
                    "r": 114.28454899999997,
                    "lng": 114.284549,
                    "lat": 39.765608
                },
                "address": "壶泉镇",
                "tel": "",
                "distance": null
            }, {
                "id": "B01600N338",
                "name": "广灵县人民医院-妇科",
                "type": "医疗保健服务;医疗保健服务场所;医疗保健服务场所",
                "location": {
                    "w": 39.765769,
                    "r": 114.28385000000003,
                    "lng": 114.28385,
                    "lat": 39.765769
                },
                "address": "新建路北大街广灵县人民医院附近",
                "tel": "",
                "distance": null
            }, {
                "id": "B0FFFEVCUS",
                "name": "广灵县人民医院急诊楼",
                "type": "医疗保健服务;综合医院;综合医院",
                "location": {
                    "w": 39.765667,
                    "r": 114.28414900000001,
                    "lng": 114.284149,
                    "lat": 39.765667
                },
                "address": "壶泉镇",
                "tel": "",
                "distance": null
            }, {
                "id": "B0160002WZ",
                "name": "大同市广灵县残疾人社区康复站",
                "type": "体育休闲服务;度假疗养场所;疗养院",
                "location": {
                    "w": 39.765841,
                    "r": 114.284202,
                    "lng": 114.284202,
                    "lat": 39.765841
                },
                "address": "新源北路广灵县人民医院附近",
                "tel": "",
                "distance": null
            }, {
                "id": "B0160002X0",
                "name": "大同市肿瘤医院协作医院",
                "type": "医疗保健服务;专科医院;肿瘤医院",
                "location": {
                    "w": 39.76584,
                    "r": 114.284202,
                    "lng": 114.284202,
                    "lat": 39.76584
                },
                "address": "新源北路广灵县人民医院附近",
                "tel": "",
                "distance": null
            }, {
                "id": "B0160002WY",
                "name": "大同市传染病医院协作医院",
                "type": "医疗保健服务;专科医院;传染病医院",
                "location": {
                    "w": 39.765842,
                    "r": 114.284201,
                    "lng": 114.284201,
                    "lat": 39.765842
                },
                "address": "新源北路广灵县人民医院附近",
                "tel": "",
                "distance": null
            }, {
                "id": "B016000231",
                "name": "泰康药店(新建东街)",
                "type": "医疗保健服务;医药保健销售店;药房",
                "location": {
                    "w": 39.76542,
                    "r": 114.28434199999998,
                    "lng": 114.284342,
                    "lat": 39.76542
                },
                "address": "新源北路广灵县人民医院附近",
                "tel": "",
                "distance": null
            }, {
                "id": "B01600022U",
                "name": "百草堂(新建东街)",
                "type": "医疗保健服务;医药保健销售店;药房",
                "location": {
                    "w": 39.765267,
                    "r": 114.28380900000002,
                    "lng": 114.283809,
                    "lat": 39.765267
                },
                "address": "新源北路广灵县人民医院附近",
                "tel": "",
                "distance": null
            }, {
                "id": "B016000FUD",
                "name": "中国联通(新建东街)",
                "type": "生活服务;电讯营业厅;中国联通营业厅",
                "location": {
                    "w": 39.765173,
                    "r": 114.28348399999999,
                    "lng": 114.283484,
                    "lat": 39.765173
                },
                "address": "新源北路(广灵县人民医院西)",
                "tel": "",
                "distance": null
            }]
        }, {
            "id": 20391,
            "status": 1,
            "name": "新荣汽车站",
            "slug": "xinrongqichezhan",
            "type": 8,
            "poi": [{
                "id": "B01600N672",
                "name": "新荣汽车站",
                "type": "交通设施服务;长途汽车站;长途汽车站",
                "location": {
                    "w": 40.255127,
                    "r": 113.143531,
                    "lng": 113.143531,
                    "lat": 40.255127
                },
                "address": "迎宾路附近",
                "tel": "",
                "distance": null
            }, {
                "id": "BV10352036",
                "name": "新荣区(公交站)",
                "type": "交通设施服务;公交车站;公交车站相关",
                "location": {
                    "w": 40.256817,
                    "r": 113.143959,
                    "lng": 113.143959,
                    "lat": 40.256817
                },
                "address": "10路",
                "tel": "",
                "distance": null
            }, {
                "id": "BV10449430",
                "name": "新荣联社(公交站)",
                "type": "交通设施服务;公交车站;公交车站相关",
                "location": {
                    "w": 40.254566,
                    "r": 113.137115,
                    "lng": 113.137115,
                    "lat": 40.254566
                },
                "address": "10路",
                "tel": "",
                "distance": null
            }, {
                "id": "B0FFF6SE5N",
                "name": "大同宝和旅馆(新荣区)",
                "type": "住宿服务;住宿服务相关;住宿服务相关",
                "location": {
                    "w": 40.25203,
                    "r": 113.14562000000001,
                    "lng": 113.14562,
                    "lat": 40.25203
                },
                "address": "新鲁线路边(距新荣汽车站20米)",
                "tel": "13994346986",
                "distance": null
            }, {
                "id": "B01600MWCZ",
                "name": "车站超市",
                "type": "购物服务;超级市场;超市",
                "location": {
                    "w": 40.255756,
                    "r": 113.14324999999997,
                    "lng": 113.14325,
                    "lat": 40.255756
                },
                "address": "迎宾路南车站旁",
                "tel": "0352-3077597",
                "distance": null
            }, {
                "id": "BV10449416",
                "name": "新荣区政府(公交站)",
                "type": "交通设施服务;公交车站;公交车站相关",
                "location": {
                    "w": 40.255894,
                    "r": 113.14109000000002,
                    "lng": 113.14109,
                    "lat": 40.255894
                },
                "address": "10路",
                "tel": "",
                "distance": null
            }, {
                "id": "BV10496333",
                "name": "新荣区二中(公交站)",
                "type": "交通设施服务;公交车站;公交车站相关",
                "location": {
                    "w": 40.242634,
                    "r": 113.13850400000001,
                    "lng": 113.138504,
                    "lat": 40.242634
                },
                "address": "10路",
                "tel": "",
                "distance": null
            }, {
                "id": "B0FFF35NKU",
                "name": "车站旅店",
                "type": "住宿服务;旅馆招待所;旅馆招待所",
                "location": {
                    "w": 40.25063,
                    "r": 113.14480000000003,
                    "lng": 113.1448,
                    "lat": 40.25063
                },
                "address": "车站对面",
                "tel": "0352-3077956;13934741893",
                "distance": null
            }, {
                "id": "B0FFFVL97L",
                "name": "加油站",
                "type": "汽车服务;汽车服务相关;汽车服务相关",
                "location": {
                    "w": 40.251,
                    "r": 113.14535899999998,
                    "lng": 113.145359,
                    "lat": 40.251
                },
                "address": "新同线",
                "tel": "",
                "distance": null
            }, {
                "id": "B016000JQ9",
                "name": "中国石油加油站(淤泥河)",
                "type": "汽车服务;加油站;中国石油",
                "location": {
                    "w": 40.244662,
                    "r": 113.14518399999997,
                    "lng": 113.145184,
                    "lat": 40.244662
                },
                "address": "204省道与新同线交接处向西路北",
                "tel": "",
                "distance": null
            }]
        }, {
            "id": 20390,
            "status": 1,
            "name": "广灵县中医院",
            "slug": "guanglingxianzhongyiyuan",
            "type": 5,
            "poi": [{
                "id": "B0160000PY",
                "name": "广灵县中医院",
                "type": "医疗保健服务;综合医院;综合医院",
                "location": {
                    "w": 39.758676,
                    "r": 114.27392700000001,
                    "lng": 114.273927,
                    "lat": 39.758676
                },
                "address": "府西街",
                "tel": "0352-8823259",
                "distance": null
            }, {
                "id": "B01600MKZL",
                "name": "广灵县医药药材公司",
                "type": "公司企业;公司;医药公司",
                "location": {
                    "w": 39.758761,
                    "r": 114.27342299999998,
                    "lng": 114.273423,
                    "lat": 39.758761
                },
                "address": "府西街附近",
                "tel": "",
                "distance": null
            }, {
                "id": "B0FFF749PW",
                "name": "广灵县寿康药店",
                "type": "医疗保健服务;医药保健销售店;药房",
                "location": {
                    "w": 39.758859,
                    "r": 114.27441099999999,
                    "lng": 114.274411,
                    "lat": 39.758859
                },
                "address": "府西街工字路口南新中医院楼下",
                "tel": "0352-8825179;13935217484",
                "distance": null
            }, {
                "id": "B01600MHGE",
                "name": "广灵县中小企业局",
                "type": "政府机构及社会团体;政府机关;区县级政府及事业单位",
                "location": {
                    "w": 39.763747,
                    "r": 114.27887699999997,
                    "lng": 114.278877,
                    "lat": 39.763747
                },
                "address": "延陵路红十字会博爱医院附近",
                "tel": "",
                "distance": null
            }, {
                "id": "B0FFG17SQX",
                "name": "忠玉副食店",
                "type": "购物服务;便民商店/便利店;便民商店/便利店",
                "location": {
                    "w": 39.758977,
                    "r": 114.274136,
                    "lng": 114.274136,
                    "lat": 39.758977
                },
                "address": "府西街附近",
                "tel": "0352-8986757",
                "distance": null
            }, {
                "id": "B0FFG17SRM",
                "name": "周记蛋糕",
                "type": "餐饮服务;糕饼店;糕饼店",
                "location": {
                    "w": 39.758899,
                    "r": 114.27410399999997,
                    "lng": 114.274104,
                    "lat": 39.758899
                },
                "address": "府西街广灵县中医院附近",
                "tel": "",
                "distance": null
            }, {
                "id": "B0FFG17RWP",
                "name": "天天香豆腐干",
                "type": "餐饮服务;餐饮相关场所;餐饮相关",
                "location": {
                    "w": 39.758919,
                    "r": 114.27374500000002,
                    "lng": 114.273745,
                    "lat": 39.758919
                },
                "address": "府西街广灵县中医院附近",
                "tel": "13593012027",
                "distance": null
            }, {
                "id": "B016000FUD",
                "name": "中国联通(新建东街)",
                "type": "生活服务;电讯营业厅;中国联通营业厅",
                "location": {
                    "w": 39.765173,
                    "r": 114.28348399999999,
                    "lng": 114.283484,
                    "lat": 39.765173
                },
                "address": "新源北路(广灵县人民医院西)",
                "tel": "",
                "distance": null
            }, {
                "id": "B01600MIF8",
                "name": "博士配镜中心",
                "type": "购物服务;专卖店;眼镜店",
                "location": {
                    "w": 39.765371,
                    "r": 114.28417400000001,
                    "lng": 114.284174,
                    "lat": 39.765371
                },
                "address": "新源北路广灵县人民医院附近",
                "tel": "",
                "distance": null
            }, {
                "id": "B01600MHHL",
                "name": "中国福利彩票",
                "type": "生活服务;彩票彩券销售点;彩票彩券销售点",
                "location": {
                    "w": 39.767282,
                    "r": 114.288115,
                    "lng": 114.288115,
                    "lat": 39.767282
                },
                "address": "新源北路广灵县人民医院附近",
                "tel": "",
                "distance": null
            }]
        }, {
            "id": 20393,
            "status": 1,
            "name": "新世纪商厦",
            "slug": "xinshijishangsha",
            "type": 6,
            "poi": [{
                "id": "B01600045G",
                "name": "新世纪商厦(长城东街)",
                "type": "购物服务;商场;普通商场",
                "location": {
                    "w": 40.258735,
                    "r": 113.141323,
                    "lng": 113.141323,
                    "lat": 40.258735
                },
                "address": "长城西街",
                "tel": "0352-3072345",
                "distance": null
            }, {
                "id": "B01600MU75",
                "name": "凤凰家私",
                "type": "购物服务;家居建材市场;家居建材市场",
                "location": {
                    "w": 40.25826,
                    "r": 113.14063899999996,
                    "lng": 113.140639,
                    "lat": 40.25826
                },
                "address": "新世纪商厦",
                "tel": "",
                "distance": null
            }, {
                "id": "B01600MWP5",
                "name": "世纪酷歌",
                "type": "体育休闲服务;娱乐场所;KTV",
                "location": {
                    "w": 40.258688,
                    "r": 113.14098899999999,
                    "lng": 113.140989,
                    "lat": 40.258688
                },
                "address": "新世纪商厦4楼",
                "tel": "0352-3071888;13546037388",
                "distance": null
            }]
        }, {
            "id": 20392,
            "status": 1,
            "name": "新荣区人民医院",
            "slug": "xinrongqurenminyiyuan",
            "type": 5,
            "poi": [{
                "id": "B0160000LC",
                "name": "新荣区人民医院",
                "type": "医疗保健服务;综合医院;综合医院",
                "location": {
                    "w": 40.257553,
                    "r": 113.13509799999997,
                    "lng": 113.135098,
                    "lat": 40.257553
                },
                "address": "长城西街18号",
                "tel": "",
                "distance": null
            }, {
                "id": "B01600N33D",
                "name": "新荣区人民医院-门诊",
                "type": "医疗保健服务;医疗保健服务场所;医疗保健服务场所",
                "location": {
                    "w": 40.257789,
                    "r": 113.13485000000003,
                    "lng": 113.13485,
                    "lat": 40.257789
                },
                "address": "长城西街18附近",
                "tel": "",
                "distance": null
            }, {
                "id": "B01600MUJH",
                "name": "新荣区人民医院-急诊",
                "type": "医疗保健服务;医疗保健服务场所;医疗保健服务场所",
                "location": {
                    "w": 40.257789,
                    "r": 113.13485000000003,
                    "lng": 113.13485,
                    "lat": 40.257789
                },
                "address": "长城西街18附近",
                "tel": "",
                "distance": null
            }, {
                "id": "B01600N2Z4",
                "name": "新荣区人民医院-住院楼",
                "type": "医疗保健服务;医疗保健服务场所;医疗保健服务场所",
                "location": {
                    "w": 40.257987,
                    "r": 113.13498900000002,
                    "lng": 113.134989,
                    "lat": 40.257987
                },
                "address": "长城西街18附近",
                "tel": "",
                "distance": null
            }, {
                "id": "B01600MLAJ",
                "name": "大同市新荣区人民医院工会委员会",
                "type": "医疗保健服务;医疗保健服务场所;医疗保健服务场所",
                "location": {
                    "w": 40.257553,
                    "r": 113.13509799999997,
                    "lng": 113.135098,
                    "lat": 40.257553
                },
                "address": "人民医院附近",
                "tel": "",
                "distance": null
            }, {
                "id": "B0160003L4",
                "name": "新荣区交通运输局",
                "type": "政府机构及社会团体;政府机关;区县级政府及事业单位",
                "location": {
                    "w": 40.257209,
                    "r": 113.13538,
                    "lng": 113.13538,
                    "lat": 40.257209
                },
                "address": "人民医院附近",
                "tel": "0352-3072250",
                "distance": null
            }, {
                "id": "B01600MI70",
                "name": "大同市新荣区民政局",
                "type": "政府机构及社会团体;政府机关;区县级政府及事业单位",
                "location": {
                    "w": 40.257213,
                    "r": 113.13539100000003,
                    "lng": 113.135391,
                    "lat": 40.257213
                },
                "address": "人民医院附近",
                "tel": "0352-3072006",
                "distance": null
            }, {
                "id": "B01600MLAI",
                "name": "大同市新荣区人口和计划生育局",
                "type": "政府机构及社会团体;政府机关;区县级政府及事业单位",
                "location": {
                    "w": 40.258067,
                    "r": 113.13563799999997,
                    "lng": 113.135638,
                    "lat": 40.258067
                },
                "address": "人民医院附近",
                "tel": "0352-3074338",
                "distance": null
            }, {
                "id": "B01600MI6N",
                "name": "大同市新荣区计划生育协会",
                "type": "政府机构及社会团体;社会团体;社会团体相关",
                "location": {
                    "w": 40.258068,
                    "r": 113.13563899999997,
                    "lng": 113.135639,
                    "lat": 40.258068
                },
                "address": "人民医院附近",
                "tel": "0352-3072508",
                "distance": null
            }, {
                "id": "B0160000VJ",
                "name": "百老泉酒坊(长城西街)",
                "type": "购物服务;专卖店;烟酒专卖店",
                "location": {
                    "w": 40.257785,
                    "r": 113.135987,
                    "lng": 113.135987,
                    "lat": 40.257785
                },
                "address": "新鲁线(新荣区人民医院东)",
                "tel": "",
                "distance": null
            }]
        }, {
            "id": 20395,
            "status": 1,
            "name": "红旗商场",
            "slug": "hongqishangchang",
            "type": 6,
            "poi": [{
                "id": "B0FFFEWM15",
                "name": "红旗商场手机城",
                "type": "购物服务;家电电子卖场;手机销售",
                "location": {
                    "w": 39.439465,
                    "r": 114.23684500000002,
                    "lng": 114.236845,
                    "lat": 39.439465
                },
                "address": "新华街",
                "tel": "",
                "distance": null
            }, {
                "id": "B0FFFWFHMV",
                "name": "红旗洗浴",
                "type": "生活服务;洗浴推拿场所;洗浴推拿场所",
                "location": {
                    "w": 40.364494,
                    "r": 113.75383499999998,
                    "lng": 113.753835,
                    "lat": 40.364494
                },
                "address": "大西街红旗商场院内",
                "tel": "",
                "distance": null
            }]
        }, {
            "id": 20394,
            "status": 1,
            "name": "灵丘县人民医院",
            "slug": "lingqiuxianrenminyiyuan",
            "type": 5,
            "poi": [{
                "id": "B0160001JZ",
                "name": "灵丘县人民医院",
                "type": "医疗保健服务;综合医院;综合医院",
                "location": {
                    "w": 39.44186,
                    "r": 114.23788100000002,
                    "lng": 114.237881,
                    "lat": 39.44186
                },
                "address": "青年北路96号",
                "tel": "0352-8522547",
                "distance": null
            }, {
                "id": "B01600MUHL",
                "name": "灵丘县人民医院-急诊",
                "type": "医疗保健服务;综合医院;综合医院",
                "location": {
                    "w": 39.442356,
                    "r": 114.23777999999999,
                    "lng": 114.23778,
                    "lat": 39.442356
                },
                "address": "青年路附近",
                "tel": "",
                "distance": null
            }, {
                "id": "B01600MIVN",
                "name": "灵丘县第二人民医院",
                "type": "医疗保健服务;综合医院;综合医院",
                "location": {
                    "w": 39.220484,
                    "r": 114.317432,
                    "lng": 114.317432,
                    "lat": 39.220484
                },
                "address": "108国道附近",
                "tel": "",
                "distance": null
            }, {
                "id": "B01600ML8L",
                "name": "百盛(灵丘县第二人民医院东北)",
                "type": "购物服务;商场;购物中心|购物服务;商场;普通商场",
                "location": {
                    "w": 39.220721,
                    "r": 114.31867499999998,
                    "lng": 114.318675,
                    "lat": 39.220721
                },
                "address": "108国道附近",
                "tel": "",
                "distance": null
            }, {
                "id": "B01600ML6F",
                "name": "中国人民人寿保险股份有限公司(新华街)",
                "type": "金融保险服务;保险公司;中国人民保险公司",
                "location": {
                    "w": 39.440172,
                    "r": 114.24363299999999,
                    "lng": 114.243633,
                    "lat": 39.440172
                },
                "address": "新华街灵丘县轻工医院附近",
                "tel": "",
                "distance": null
            }, {
                "id": "B0FFFBZ4BU",
                "name": "康利来面包房",
                "type": "餐饮服务;糕饼店;糕饼店",
                "location": {
                    "w": 39.4406,
                    "r": 114.23786000000001,
                    "lng": 114.23786,
                    "lat": 39.4406
                },
                "address": "武灵镇青年北路(人民医院)",
                "tel": "15135231665",
                "distance": null
            }]
        }, {
            "id": 20397,
            "status": 1,
            "name": "唐河公园",
            "slug": "tanghegongyuan",
            "type": 3,
            "poi": [{
                "id": "B0160004C9",
                "name": "唐河公园",
                "type": "风景名胜;公园广场;公园",
                "location": {
                    "w": 39.432558,
                    "r": 114.23456699999997,
                    "lng": 114.234567,
                    "lat": 39.432558
                },
                "address": "振华街",
                "tel": "",
                "distance": null
            }, {
                "id": "B01600MITS",
                "name": "唐河公园(东门)",
                "type": "风景名胜;公园广场;公园",
                "location": {
                    "w": 39.432699,
                    "r": 114.23995200000002,
                    "lng": 114.239952,
                    "lat": 39.432699
                },
                "address": "振华街附近",
                "tel": "",
                "distance": null
            }, {
                "id": "B01600041W",
                "name": "唐河便利店",
                "type": "购物服务;便民商店/便利店;便民商店/便利店",
                "location": {
                    "w": 39.435042,
                    "r": 114.23420199999998,
                    "lng": 114.234202,
                    "lat": 39.435042
                },
                "address": "南公路",
                "tel": "",
                "distance": null
            }, {
                "id": "B0FFG1E0D8",
                "name": "唐河公园便利店",
                "type": "购物服务;便民商店/便利店;便民商店/便利店",
                "location": {
                    "w": 39.435019,
                    "r": 114.23419999999999,
                    "lng": 114.2342,
                    "lat": 39.435019
                },
                "address": "南公路",
                "tel": "",
                "distance": null
            }, {
                "id": "B0FFFWNW86",
                "name": "东方红自助餐",
                "type": "餐饮服务;中餐厅;中餐厅",
                "location": {
                    "w": 39.434619,
                    "r": 114.233702,
                    "lng": 114.233702,
                    "lat": 39.434619
                },
                "address": "唐河公园",
                "tel": "",
                "distance": null
            }, {
                "id": "B01600MG97",
                "name": "雅洁洗车王",
                "type": "汽车服务;洗车场;洗车场",
                "location": {
                    "w": 39.434629,
                    "r": 114.234128,
                    "lng": 114.234128,
                    "lat": 39.434629
                },
                "address": "唐河公园",
                "tel": "",
                "distance": null
            }, {
                "id": "B0FFFWLZK9",
                "name": "老字号夹肉饼",
                "type": "餐饮服务;餐饮相关场所;餐饮相关",
                "location": {
                    "w": 39.435021,
                    "r": 114.23406,
                    "lng": 114.23406,
                    "lat": 39.435021
                },
                "address": "唐河公园对面",
                "tel": "",
                "distance": null
            }, {
                "id": "B0FFFEVKHV",
                "name": "福鑫源",
                "type": "商务住宅;住宅区;住宅小区",
                "location": {
                    "w": 39.43468,
                    "r": 114.23354899999998,
                    "lng": 114.233549,
                    "lat": 39.43468
                },
                "address": "振华街唐河公园西侧",
                "tel": "0352-8521505",
                "distance": null
            }, {
                "id": "B01600N4ID",
                "name": "纽约纽约婚纱摄影",
                "type": "生活服务;摄影冲印店;摄影冲印",
                "location": {
                    "w": 39.435917,
                    "r": 114.23411599999997,
                    "lng": 114.234116,
                    "lat": 39.435917
                },
                "address": "唐河公园新建南路",
                "tel": "",
                "distance": null
            }, {
                "id": "B0FFG469T3",
                "name": "灵丘县君意信息咨询中心",
                "type": "生活服务;生活服务场所;生活服务场所",
                "location": {
                    "w": 39.434706,
                    "r": 114.234735,
                    "lng": 114.234735,
                    "lat": 39.434706
                },
                "address": "唐河公园北门东",
                "tel": "0352-8602082",
                "distance": null
            }]
        }, {
            "id": 3045,
            "status": 1,
            "name": "大同大学",
            "slug": "datongdaxue",
            "type": 1,
            "poi": [{
                "id": "BV10086615",
                "name": "大同大学(公交站)",
                "type": "交通设施服务;公交车站;公交车站相关",
                "location": {
                    "w": 40.093761,
                    "r": 113.34996799999999,
                    "lng": 113.349968,
                    "lat": 40.093761
                },
                "address": "38路;60路;62路;64路;70路",
                "tel": "",
                "distance": null
            }, {
                "id": "B01600MKOP",
                "name": "大同大学南区",
                "type": "科教文化服务;学校;高等院校",
                "location": {
                    "w": 40.09245,
                    "r": 113.354443,
                    "lng": 113.354443,
                    "lat": 40.09245
                },
                "address": "御河桥东",
                "tel": "0352-7158816",
                "distance": null
            }, {
                "id": "B0FFFEV9LM",
                "name": "山西大同大学新区",
                "type": "科教文化服务;学校;高等院校",
                "location": {
                    "w": 40.094045,
                    "r": 113.35093,
                    "lng": 113.35093,
                    "lat": 40.094045
                },
                "address": "兴云街附近",
                "tel": "",
                "distance": null
            }, {
                "id": "B01600MI94",
                "name": "大同大学北区",
                "type": "科教文化服务;学校;高等院校",
                "location": {
                    "w": 40.095327,
                    "r": 113.351202,
                    "lng": 113.351202,
                    "lat": 40.095327
                },
                "address": "兴云街",
                "tel": "",
                "distance": null
            }, {
                "id": "B01600067U",
                "name": "大同大学大同师范分校",
                "type": "科教文化服务;学校;高等院校",
                "location": {
                    "w": 40.076989,
                    "r": 113.22795000000002,
                    "lng": 113.22795,
                    "lat": 40.076989
                },
                "address": "大塘公路",
                "tel": "",
                "distance": null
            }, {
                "id": "B01600MJM6",
                "name": "山西大同大学浑源师范分校",
                "type": "科教文化服务;学校;高等院校",
                "location": {
                    "w": 39.699982,
                    "r": 113.70524999999998,
                    "lng": 113.70525,
                    "lat": 39.699982
                },
                "address": "永安东街",
                "tel": "",
                "distance": null
            }, {
                "id": "B01600MK11",
                "name": "大同大学北区(南门)",
                "type": "科教文化服务;学校;高等院校",
                "location": {
                    "w": 40.094343,
                    "r": 113.351267,
                    "lng": 113.351267,
                    "lat": 40.094343
                },
                "address": "兴云街",
                "tel": "",
                "distance": null
            }, {
                "id": "B01600MGQI",
                "name": "大同大学南区(北门)",
                "type": "科教文化服务;学校;高等院校",
                "location": {
                    "w": 40.093386,
                    "r": 113.35468300000002,
                    "lng": 113.354683,
                    "lat": 40.093386
                },
                "address": "御河桥东",
                "tel": "",
                "distance": null
            }, {
                "id": "BV10086772",
                "name": "大同大学东(公交站)",
                "type": "交通设施服务;公交车站;公交车站相关",
                "location": {
                    "w": 40.094105,
                    "r": 113.35936700000002,
                    "lng": 113.359367,
                    "lat": 40.094105
                },
                "address": "38路;64路;70路",
                "tel": "",
                "distance": null
            }, {
                "id": "B01600MNYH",
                "name": "大同大学图书馆",
                "type": "科教文化服务;图书馆;图书馆",
                "location": {
                    "w": 40.092294,
                    "r": 113.35189000000003,
                    "lng": 113.35189,
                    "lat": 40.092294
                },
                "address": "山西大同大学",
                "tel": "",
                "distance": null
            }]
        }, {
            "id": 3044,
            "status": 1,
            "name": "大同煤炭职业技术学院",
            "slug": "datongmeitanzhiyejishuxueyuan",
            "type": 1,
            "poi": [{
                "id": "B01600MC0T",
                "name": "同煤大学职业技术学院",
                "type": "科教文化服务;学校;高等院校",
                "location": {
                    "w": 40.023719,
                    "r": 113.1839,
                    "lng": 113.1839,
                    "lat": 40.023719
                },
                "address": "",
                "tel": "",
                "distance": null
            }, {
                "id": "B0FFFGUTZI",
                "name": "大同煤炭高级技校",
                "type": "科教文化服务;学校;职业技术学校",
                "location": {
                    "w": 40.033182,
                    "r": 113.18628899999999,
                    "lng": 113.186289,
                    "lat": 40.033182
                },
                "address": "校北街",
                "tel": "",
                "distance": null
            }, {
                "id": "B0FFF6LJQD",
                "name": "煤炭工程学校",
                "type": "科教文化服务;学校;职业技术学校",
                "location": {
                    "w": 40.03233,
                    "r": 113.17385999999999,
                    "lng": 113.17386,
                    "lat": 40.03233
                },
                "address": "平泉路52号",
                "tel": "0352-4186036",
                "distance": null
            }, {
                "id": "B0160001YX",
                "name": "山西省雁北煤炭工业学校",
                "type": "科教文化服务;学校;职业技术学校",
                "location": {
                    "w": 40.125224,
                    "r": 113.309125,
                    "lng": 113.309125,
                    "lat": 40.125224
                },
                "address": "站东大街48号",
                "tel": "",
                "distance": null
            }, {
                "id": "B0FFFGYAJW",
                "name": "山西省雁北煤炭工业学校(西北门)",
                "type": "科教文化服务;学校;职业技术学校",
                "location": {
                    "w": 40.126394,
                    "r": 113.30827599999998,
                    "lng": 113.308276,
                    "lat": 40.126394
                },
                "address": "同丰公路大同市雁云中学附近",
                "tel": "",
                "distance": null
            }, {
                "id": "B01600MFZS",
                "name": "山西省雁北煤炭工业学校(南门)",
                "type": "科教文化服务;学校;职业技术学校",
                "location": {
                    "w": 40.124801,
                    "r": 113.30912000000001,
                    "lng": 113.30912,
                    "lat": 40.124801
                },
                "address": "站东大街",
                "tel": "",
                "distance": null
            }]
        }, {
            "id": 20398,
            "status": 1,
            "name": "灵丘火车站",
            "slug": "lingqiuhuochezhan",
            "type": 2,
            "poi": [{
                "id": "B0160004BU",
                "name": "灵丘站",
                "type": "交通设施服务;火车站;火车站",
                "location": {
                    "w": 39.461777,
                    "r": 114.22249799999997,
                    "lng": 114.222498,
                    "lat": 39.461777
                },
                "address": "车务段",
                "tel": "0352-7286282",
                "distance": null
            }, {
                "id": "B01600N5Y6",
                "name": "灵丘站(东出站口)",
                "type": "交通设施服务;火车站;火车站",
                "location": {
                    "w": 39.461801,
                    "r": 114.22278599999999,
                    "lng": 114.222786,
                    "lat": 39.461801
                },
                "address": "车务段灵丘站",
                "tel": "",
                "distance": null
            }, {
                "id": "B01600MJCK",
                "name": "灵丘汽车客运站",
                "type": "交通设施服务;长途汽车站;长途汽车站",
                "location": {
                    "w": 39.456891,
                    "r": 114.22801400000003,
                    "lng": 114.228014,
                    "lat": 39.456891
                },
                "address": "203省道附近",
                "tel": "",
                "distance": null
            }, {
                "id": "B01600MOF8",
                "name": "灵丘车站派出所",
                "type": "政府机构及社会团体;公检法机构;公安警察",
                "location": {
                    "w": 39.461384,
                    "r": 114.22316999999998,
                    "lng": 114.22317,
                    "lat": 39.461384
                },
                "address": "火车站路附近",
                "tel": "0352-8670110",
                "distance": null
            }, {
                "id": "B01600MGJ8",
                "name": "灵丘县种子管理站",
                "type": "政府机构及社会团体;政府机关;区县级政府及事业单位",
                "location": {
                    "w": 39.43917,
                    "r": 114.22770100000002,
                    "lng": 114.227701,
                    "lat": 39.43917
                },
                "address": "新华街附近",
                "tel": "",
                "distance": null
            }, {
                "id": "B0160002YJ",
                "name": "灵丘县环境监测站",
                "type": "政府机构及社会团体;政府机关;区县级政府及事业单位",
                "location": {
                    "w": 39.438924,
                    "r": 114.22366099999999,
                    "lng": 114.223661,
                    "lat": 39.438924
                },
                "address": "新华街附近",
                "tel": "",
                "distance": null
            }, {
                "id": "B01600ML8F",
                "name": "中国石油灵丘第4加油站",
                "type": "汽车服务;加油站;中国石油",
                "location": {
                    "w": 39.4407,
                    "r": 114.26162199999999,
                    "lng": 114.261622,
                    "lat": 39.4407
                },
                "address": "灵源村东",
                "tel": "",
                "distance": null
            }, {
                "id": "B016000JJT",
                "name": "中国石化灵丘西门加油站",
                "type": "汽车服务;加油站;中国石化",
                "location": {
                    "w": 39.438333,
                    "r": 114.22378800000001,
                    "lng": 114.223788,
                    "lat": 39.438333
                },
                "address": "振华街",
                "tel": "0352-8687424",
                "distance": null
            }, {
                "id": "B01600037V",
                "name": "灵丘县化学试剂供应站",
                "type": "购物服务;购物相关场所;购物相关场所",
                "location": {
                    "w": 39.444313,
                    "r": 114.23302699999999,
                    "lng": 114.233027,
                    "lat": 39.444313
                },
                "address": "武灵镇新建路153号",
                "tel": "0352-3338316;15635210456",
                "distance": null
            }, {
                "id": "B0FFFYBQM7",
                "name": "天津一汽大同有限公司维修站灵丘分站",
                "type": "汽车维修;汽车维修;汽车维修",
                "location": {
                    "w": 39.43468,
                    "r": 114.23930000000001,
                    "lng": 114.2393,
                    "lat": 39.43468
                },
                "address": "振华街",
                "tel": "",
                "distance": null
            }]
        }, {
            "id": 20349,
            "status": 1,
            "name": "大同县人民医院",
            "slug": "datongxianrenminyiyuan",
            "type": 5,
            "poi": [{
                "id": "B01600MM5Q",
                "name": "大同县人民医院",
                "type": "医疗保健服务;综合医院;综合医院",
                "location": {
                    "w": 40.039834,
                    "r": 113.61619100000001,
                    "lng": 113.616191,
                    "lat": 40.039834
                },
                "address": "东街56号",
                "tel": "0352-8014380;0352-8012529",
                "distance": null
            }, {
                "id": "B01600N2YR",
                "name": "大同县人民医院-门诊",
                "type": "医疗保健服务;医疗保健服务场所;医疗保健服务场所",
                "location": {
                    "w": 40.039576,
                    "r": 113.61631999999997,
                    "lng": 113.61632,
                    "lat": 40.039576
                },
                "address": "东街56号大同县人民医院附近",
                "tel": "",
                "distance": null
            }, {
                "id": "B01600MUN0",
                "name": "大同县人民医院-急诊",
                "type": "医疗保健服务;急救中心;急救中心",
                "location": {
                    "w": 40.0398,
                    "r": 113.61630000000002,
                    "lng": 113.6163,
                    "lat": 40.0398
                },
                "address": "东街56号大同县人民医院附近",
                "tel": "",
                "distance": null
            }, {
                "id": "B01600N2YW",
                "name": "大同县人民医院-眼科",
                "type": "医疗保健服务;医疗保健服务场所;医疗保健服务场所",
                "location": {
                    "w": 40.039797,
                    "r": 113.61630000000002,
                    "lng": 113.6163,
                    "lat": 40.039797
                },
                "address": "东街56号大同县人民医院附近",
                "tel": "",
                "distance": null
            }, {
                "id": "B01600MV7V",
                "name": "大同县人民医院-体检中心",
                "type": "医疗保健服务;医疗保健服务场所;医疗保健服务场所",
                "location": {
                    "w": 40.039797,
                    "r": 113.61630000000002,
                    "lng": 113.6163,
                    "lat": 40.039797
                },
                "address": "东街56号大同县人民医院附近",
                "tel": "",
                "distance": null
            }, {
                "id": "B01600N32W",
                "name": "大同县人民医院-住院楼",
                "type": "医疗保健服务;医疗保健服务场所;医疗保健服务场所",
                "location": {
                    "w": 40.039576,
                    "r": 113.61631999999997,
                    "lng": 113.61632,
                    "lat": 40.039576
                },
                "address": "东街56号大同县人民医院附近",
                "tel": "",
                "distance": null
            }, {
                "id": "B01600N32J",
                "name": "大同县人民医院-口腔科",
                "type": "医疗保健服务;医疗保健服务场所;医疗保健服务场所",
                "location": {
                    "w": 40.039797,
                    "r": 113.61630000000002,
                    "lng": 113.6163,
                    "lat": 40.039797
                },
                "address": "东街56号大同县人民医院附近",
                "tel": "",
                "distance": null
            }, {
                "id": "B01600MUB9",
                "name": "大同县人民医院-肾内科",
                "type": "医疗保健服务;医疗保健服务场所;医疗保健服务场所",
                "location": {
                    "w": 40.039088,
                    "r": 113.61576000000002,
                    "lng": 113.61576,
                    "lat": 40.039088
                },
                "address": "坪邑东街附近",
                "tel": "",
                "distance": null
            }, {
                "id": "B01600N2YV",
                "name": "大同县人民医院-透析科",
                "type": "医疗保健服务;医疗保健服务场所;医疗保健服务场所",
                "location": {
                    "w": 40.039183,
                    "r": 113.61581999999999,
                    "lng": 113.61582,
                    "lat": 40.039183
                },
                "address": "坪邑东街附近",
                "tel": "",
                "distance": null
            }, {
                "id": "B01600N32Y",
                "name": "大同县人民医院-预防保健科",
                "type": "医疗保健服务;医疗保健服务场所;医疗保健服务场所",
                "location": {
                    "w": 40.039797,
                    "r": 113.61630000000002,
                    "lng": 113.6163,
                    "lat": 40.039797
                },
                "address": "东街56号大同县人民医院附近",
                "tel": "",
                "distance": null
            }]
        }, {
            "id": 20402,
            "status": 1,
            "name": "新平旺汽车站",
            "slug": "xinpingwangqichezhan",
            "type": 8,
            "poi": [{
                "id": "B01600MM9G",
                "name": "新平旺汽车站",
                "type": "交通设施服务;长途汽车站;长途汽车站",
                "location": {
                    "w": 40.032447,
                    "r": 113.17204400000003,
                    "lng": 113.172044,
                    "lat": 40.032447
                },
                "address": "同泉西路288附近",
                "tel": "0352-7024257",
                "distance": null
            }, {
                "id": "B01600MLXU",
                "name": "矿区新平旺汽车站",
                "type": "交通设施服务;长途汽车站;长途汽车站",
                "location": {
                    "w": 40.001773,
                    "r": 113.222059,
                    "lng": 113.222059,
                    "lat": 40.001773
                },
                "address": "恒安新区G区东",
                "tel": "0352-7844428;0352-7024257",
                "distance": null
            }, {
                "id": "B01600MLIT",
                "name": "晨光KTV",
                "type": "体育休闲服务;娱乐场所;KTV",
                "location": {
                    "w": 40.002457,
                    "r": 113.22201899999999,
                    "lng": 113.222019,
                    "lat": 40.002457
                },
                "address": "新平旺汽车站北侧",
                "tel": "13363427188",
                "distance": null
            }, {
                "id": "B0FFFSVYTZ",
                "name": "麦妙烘焙(汽车站店)",
                "type": "餐饮服务;糕饼店;糕饼店",
                "location": {
                    "w": 40.00188,
                    "r": 113.22194000000002,
                    "lng": 113.22194,
                    "lat": 40.00188
                },
                "address": "棚户区H区商铺95号(大美酒店往北新平旺汽车站旁)",
                "tel": "15835026860",
                "distance": null
            }, {
                "id": "B0FFG4SHO1",
                "name": "一方鲜花婚庆",
                "type": "生活服务;生活服务场所;生活服务场所",
                "location": {
                    "w": 40.032848,
                    "r": 113.17178100000001,
                    "lng": 113.171781,
                    "lat": 40.032848
                },
                "address": "同泉西路288新平旺汽车站附近",
                "tel": "",
                "distance": null
            }, {
                "id": "B01600MXM2",
                "name": "福泰旅店",
                "type": "住宿服务;旅馆招待所;旅馆招待所",
                "location": {
                    "w": 40.00411,
                    "r": 113.22145,
                    "lng": 113.22145,
                    "lat": 40.00411
                },
                "address": "大同恒安新区F区南门58号(紧邻新平旺汽车站)",
                "tel": "15110753737",
                "distance": null
            }]
        }, {
            "id": 20404,
            "status": 1,
            "name": "同煤集团总医院",
            "slug": "tongmeijituanzongyiyuan",
            "type": 5,
            "poi": [{
                "id": "B01600MKKX",
                "name": "同煤集团总医院",
                "type": "医疗保健服务;综合医院;综合医院",
                "location": {
                    "w": 40.039071,
                    "r": 113.168432,
                    "lng": 113.168432,
                    "lat": 40.039071
                },
                "address": "新平旺纬七路1号",
                "tel": "0352-7028338;0352-7014967;0352-7028331",
                "distance": null
            }, {
                "id": "B01600MQ2T",
                "name": "同煤集团总医院-门诊部",
                "type": "医疗保健服务;综合医院;综合医院",
                "location": {
                    "w": 40.039356,
                    "r": 113.16820000000001,
                    "lng": 113.1682,
                    "lat": 40.039356
                },
                "address": "纬七路1号附近",
                "tel": "",
                "distance": null
            }, {
                "id": "B01600MRF4",
                "name": "同煤集团总医院急诊",
                "type": "医疗保健服务;急救中心;急救中心",
                "location": {
                    "w": 40.039055,
                    "r": 113.16728999999998,
                    "lng": 113.16729,
                    "lat": 40.039055
                },
                "address": "纬七路杏林小区附近",
                "tel": "",
                "distance": null
            }, {
                "id": "B01600MVAX",
                "name": "同煤集团总医院-针灸科",
                "type": "医疗保健服务;医疗保健服务场所;医疗保健服务场所",
                "location": {
                    "w": 40.041019,
                    "r": 113.16793000000001,
                    "lng": 113.16793,
                    "lat": 40.041019
                },
                "address": "",
                "tel": "",
                "distance": null
            }, {
                "id": "B01600MSO7",
                "name": "同煤集团总医院-理疗科",
                "type": "医疗保健服务;医疗保健服务场所;医疗保健服务场所",
                "location": {
                    "w": 40.041019,
                    "r": 113.16793000000001,
                    "lng": 113.16793,
                    "lat": 40.041019
                },
                "address": "",
                "tel": "",
                "distance": null
            }, {
                "id": "B01600N33C",
                "name": "同煤集团总医院-液疗室",
                "type": "医疗保健服务;综合医院;综合医院",
                "location": {
                    "w": 40.038975,
                    "r": 113.16687999999999,
                    "lng": 113.16688,
                    "lat": 40.038975
                },
                "address": "纬七路杏林小区附近",
                "tel": "",
                "distance": null
            }, {
                "id": "B01600MQ2D",
                "name": "同煤集团总医院康复医学科",
                "type": "医疗保健服务;医疗保健服务场所;医疗保健服务场所",
                "location": {
                    "w": 40.041295,
                    "r": 113.16687999999999,
                    "lng": 113.16688,
                    "lat": 40.041295
                },
                "address": "",
                "tel": "",
                "distance": null
            }, {
                "id": "B016000675",
                "name": "同煤一医院",
                "type": "医疗保健服务;综合医院;综合医院",
                "location": {
                    "w": 40.039074,
                    "r": 113.16844500000002,
                    "lng": 113.168445,
                    "lat": 40.039074
                },
                "address": "新平旺纬七路1号",
                "tel": "0352-7028338",
                "distance": null
            }, {
                "id": "B01600067B",
                "name": "同煤集团医疗卫生中心",
                "type": "医疗保健服务;综合医院;卫生院",
                "location": {
                    "w": 40.037861,
                    "r": 113.17102899999998,
                    "lng": 113.171029,
                    "lat": 40.037861
                },
                "address": "平旺物业幼儿园南侧",
                "tel": "0352-7012220",
                "distance": null
            }, {
                "id": "B0FFFGXVEU",
                "name": "现代牧业(矿务局店)",
                "type": "购物服务;综合市场;农副产品市场",
                "location": {
                    "w": 40.0389,
                    "r": 113.16877,
                    "lng": 113.16877,
                    "lat": 40.0389
                },
                "address": "同煤总医院往东100米",
                "tel": "13333423161",
                "distance": null
            }]
        }, {
            "id": 20345,
            "status": 1,
            "name": "大同市第四人民医院",
            "slug": "datongshidisirenminyiyuan",
            "type": 5,
            "poi": [{
                "id": "B016000DY7",
                "name": "大同市第四人民医院",
                "type": "医疗保健服务;综合医院;综合医院",
                "location": {
                    "w": 40.065562,
                    "r": 113.30343199999999,
                    "lng": 113.303432,
                    "lat": 40.065562
                },
                "address": "工农路16号",
                "tel": "0352-5039999;0352-5022407",
                "distance": null
            }, {
                "id": "B0FFFEVF41",
                "name": "大同市第四人民医院急诊",
                "type": "医疗保健服务;综合医院;综合医院",
                "location": {
                    "w": 40.065563,
                    "r": 113.303428,
                    "lng": 113.303428,
                    "lat": 40.065563
                },
                "address": "工农路16号",
                "tel": "",
                "distance": null
            }, {
                "id": "B0FFFGUR1F",
                "name": "大同市第四人民医院(西门)",
                "type": "医疗保健服务;综合医院;综合医院",
                "location": {
                    "w": 40.065583,
                    "r": 113.303044,
                    "lng": 113.303044,
                    "lat": 40.065583
                },
                "address": "永泰南路16附近",
                "tel": "",
                "distance": null
            }, {
                "id": "B0FFF3Z3KB",
                "name": "大同市第四人民医院-四医院(北门)",
                "type": "医疗保健服务;医疗保健服务场所;医疗保健服务场所",
                "location": {
                    "w": 40.065788,
                    "r": 113.30465300000003,
                    "lng": 113.304653,
                    "lat": 40.065788
                },
                "address": "向阳街附近",
                "tel": "",
                "distance": null
            }, {
                "id": "B0FFF4A1EN",
                "name": "大同市第四人民医院-结核门诊",
                "type": "医疗保健服务;医疗保健服务场所;医疗保健服务场所",
                "location": {
                    "w": 40.065089,
                    "r": 113.30453,
                    "lng": 113.30453,
                    "lat": 40.065089
                },
                "address": "永泰南路附近",
                "tel": "",
                "distance": null
            }, {
                "id": "B0FFF433K8",
                "name": "大同市第四人民医院-发热门诊",
                "type": "医疗保健服务;医疗保健服务场所;医疗保健服务场所",
                "location": {
                    "w": 40.065069,
                    "r": 113.30376999999999,
                    "lng": 113.30377,
                    "lat": 40.065069
                },
                "address": "永泰南路附近",
                "tel": "",
                "distance": null
            }, {
                "id": "B016000DYG",
                "name": "新野烧烤第一部",
                "type": "餐饮服务;中餐厅;特色/地方风味餐厅",
                "location": {
                    "w": 40.066633,
                    "r": 113.30301800000001,
                    "lng": 113.303018,
                    "lat": 40.066633
                },
                "address": "向阳里红旗集贸岗楼(近第四人民医院)",
                "tel": "0352-5954555",
                "distance": null
            }, {
                "id": "B016000DYA",
                "name": "客来安洗衣(永泰南路)",
                "type": "生活服务;洗衣店;洗衣店",
                "location": {
                    "w": 40.066077,
                    "r": 113.303045,
                    "lng": 113.303045,
                    "lat": 40.066077
                },
                "address": "滨河路水泉湾龙园东门底商",
                "tel": "0352-7682900;0352-5553595",
                "distance": null
            }]
        }, {
            "id": 20347,
            "status": 1,
            "name": "大同县汽车客运站",
            "slug": "datongxianqichekeyunzhan",
            "type": 8,
            "poi": [{
                "id": "B01600MM6H",
                "name": "大同县汽车客运站",
                "type": "交通设施服务;长途汽车站;长途汽车站",
                "location": {
                    "w": 40.04263,
                    "r": 113.60864900000001,
                    "lng": 113.608649,
                    "lat": 40.04263
                },
                "address": "西坪镇文昌西街",
                "tel": "0352-6020870",
                "distance": null
            }, {
                "id": "B016000D0M",
                "name": "大同县汽车站",
                "type": "交通设施服务;长途汽车站;长途汽车站",
                "location": {
                    "w": 40.03548,
                    "r": 113.61053700000002,
                    "lng": 113.610537,
                    "lat": 40.03548
                },
                "address": "大南街29号",
                "tel": "",
                "distance": null
            }, {
                "id": "B01600MH29",
                "name": "浑源县汽车站",
                "type": "交通设施服务;长途汽车站;长途汽车站",
                "location": {
                    "w": 39.684312,
                    "r": 113.68746599999997,
                    "lng": 113.687466,
                    "lat": 39.684312
                },
                "address": "203省道附近",
                "tel": "0352-8452277",
                "distance": null
            }, {
                "id": "B01600MJCK",
                "name": "灵丘汽车客运站",
                "type": "交通设施服务;长途汽车站;长途汽车站",
                "location": {
                    "w": 39.456891,
                    "r": 114.22801400000003,
                    "lng": 114.228014,
                    "lat": 39.456891
                },
                "address": "203省道附近",
                "tel": "",
                "distance": null
            }, {
                "id": "B01600MFE0",
                "name": "天镇汽车客运站",
                "type": "交通设施服务;长途汽车站;长途汽车站",
                "location": {
                    "w": 40.437037,
                    "r": 114.06213400000001,
                    "lng": 114.062134,
                    "lat": 40.437037
                },
                "address": "",
                "tel": "",
                "distance": null
            }, {
                "id": "B01600MFE6",
                "name": "阳高汽车客运站",
                "type": "交通设施服务;长途汽车站;长途汽车站",
                "location": {
                    "w": 40.354539,
                    "r": 113.73145299999999,
                    "lng": 113.731453,
                    "lat": 40.354539
                },
                "address": "新建路附近",
                "tel": "",
                "distance": null
            }, {
                "id": "B01600MFS4",
                "name": "浑源县公共客运汽车管理站",
                "type": "政府机构及社会团体;政府机关;区县级政府及事业单位",
                "location": {
                    "w": 39.699353,
                    "r": 113.69863499999997,
                    "lng": 113.698635,
                    "lat": 39.699353
                },
                "address": "永安东街附近",
                "tel": "",
                "distance": null
            }, {
                "id": "B0FFF61VYD",
                "name": "大同祥居旅馆(左云县)",
                "type": "住宿服务;旅馆招待所;旅馆招待所",
                "location": {
                    "w": 40.022816,
                    "r": 112.72051999999996,
                    "lng": 112.72052,
                    "lat": 40.022816
                },
                "address": "汽车站附近",
                "tel": "13994412859",
                "distance": null
            }, {
                "id": "B016000A94",
                "name": "天镇县通达汽车服务站",
                "type": "汽车维修;汽车综合维修;汽车综合维修",
                "location": {
                    "w": 40.418794,
                    "r": 114.07165500000002,
                    "lng": 114.071655,
                    "lat": 40.418794
                },
                "address": "武宁街",
                "tel": "",
                "distance": null
            }, {
                "id": "B016000ATO",
                "name": "大同金龙加油站",
                "type": "汽车服务;加油站;加油站",
                "location": {
                    "w": 40.04182,
                    "r": 113.52932299999998,
                    "lng": 113.529323,
                    "lat": 40.04182
                },
                "address": "109国道",
                "tel": "",
                "distance": null
            }]
        }, {
            "id": 20407,
            "status": 1,
            "name": "平旺火车站",
            "slug": "pingwanghuochezhan",
            "type": 2,
            "poi": [{
                "id": "B01600MY4V",
                "name": "平旺站",
                "type": "交通设施服务;火车站;火车站",
                "location": {
                    "w": 40.069209,
                    "r": 113.218569,
                    "lng": 113.218569,
                    "lat": 40.069209
                },
                "address": "同泉东路附近",
                "tel": "",
                "distance": null
            }, {
                "id": "B0FFFWCQD3",
                "name": "平旺货运大厅",
                "type": "生活服务;生活服务场所;生活服务场所",
                "location": {
                    "w": 40.065395,
                    "r": 113.216768,
                    "lng": 113.216768,
                    "lat": 40.065395
                },
                "address": "同泉东路",
                "tel": "",
                "distance": null
            }]
        }, {
            "id": 20346,
            "status": 1,
            "name": "儿童公园",
            "slug": "ertonggongyuan",
            "type": 3,
            "poi": [{
                "id": "B016000DL1",
                "name": "儿童公园-大",
                "type": "风景名胜;公园广场;公园",
                "location": {
                    "w": 40.079867,
                    "r": 113.28601300000003,
                    "lng": 113.286013,
                    "lat": 40.079867
                },
                "address": "新建南路137号",
                "tel": "0352-2040205",
                "distance": null
            }, {
                "id": "BV10086713",
                "name": "儿童公园北门(公交站)",
                "type": "交通设施服务;公交车站;公交车站相关",
                "location": {
                    "w": 40.082879,
                    "r": 113.28744699999999,
                    "lng": 113.287447,
                    "lat": 40.082879
                },
                "address": "11路内环;11路外环;26路;65路",
                "tel": "",
                "distance": null
            }, {
                "id": "BV10352151",
                "name": "儿童公园西门(公交站)",
                "type": "交通设施服务;公交车站;公交车站相关",
                "location": {
                    "w": 40.078934,
                    "r": 113.28298999999998,
                    "lng": 113.28299,
                    "lat": 40.078934
                },
                "address": "7路;27路;30路",
                "tel": "",
                "distance": null
            }, {
                "id": "B01600N2ZJ",
                "name": "儿童公园-碰碰车",
                "type": "体育休闲服务;休闲场所;游乐场",
                "location": {
                    "w": 40.081886,
                    "r": 113.28875,
                    "lng": 113.28875,
                    "lat": 40.081886
                },
                "address": "魏都大道附近",
                "tel": "",
                "distance": null
            }, {
                "id": "B01600N2ZI",
                "name": "儿童公园-脚踏车",
                "type": "风景名胜;风景名胜相关;旅游景点",
                "location": {
                    "w": 40.081897,
                    "r": 113.28845999999999,
                    "lng": 113.28846,
                    "lat": 40.081897
                },
                "address": "魏都大道附近",
                "tel": "",
                "distance": null
            }, {
                "id": "B01600N2ZO",
                "name": "儿童公园-体能乐园",
                "type": "风景名胜;风景名胜相关;旅游景点",
                "location": {
                    "w": 40.082306,
                    "r": 113.28679999999997,
                    "lng": 113.2868,
                    "lat": 40.082306
                },
                "address": "新胜西街附近",
                "tel": "",
                "distance": null
            }, {
                "id": "B01600MWTR",
                "name": "儿童公园-海盗船",
                "type": "购物服务;购物相关场所;购物相关场所",
                "location": {
                    "w": 40.081906,
                    "r": 113.28884,
                    "lng": 113.28884,
                    "lat": 40.081906
                },
                "address": "魏都大道附近",
                "tel": "",
                "distance": null
            }, {
                "id": "B01600MTW0",
                "name": "儿童公园-豪华赛车",
                "type": "风景名胜;风景名胜相关;旅游景点",
                "location": {
                    "w": 40.079479,
                    "r": 113.28584999999998,
                    "lng": 113.28585,
                    "lat": 40.079479
                },
                "address": "",
                "tel": "",
                "distance": null
            }, {
                "id": "B0FFF2KZWP",
                "name": "儿童公园-豪华转马",
                "type": "风景名胜;风景名胜相关;旅游景点",
                "location": {
                    "w": 40.081425,
                    "r": 113.28899999999999,
                    "lng": 113.289,
                    "lat": 40.081425
                },
                "address": "魏都大道附近",
                "tel": "",
                "distance": null
            }, {
                "id": "B01600MXN6",
                "name": "儿童公园-神舟飞碟",
                "type": "风景名胜;风景名胜相关;旅游景点",
                "location": {
                    "w": 40.081688,
                    "r": 113.28908000000001,
                    "lng": 113.28908,
                    "lat": 40.081688
                },
                "address": "魏都大道附近",
                "tel": "",
                "distance": null
            }]
        }, {
            "id": 20341,
            "status": 1,
            "name": "友谊医院",
            "slug": "youyiyiyuan",
            "type": 5,
            "poi": [{
                "id": "B01600MKOO",
                "name": "友谊医院(交通街)",
                "type": "医疗保健服务;综合医院;综合医院",
                "location": {
                    "w": 40.008277,
                    "r": 113.14937900000001,
                    "lng": 113.149379,
                    "lat": 40.008277
                },
                "address": "泉民街与泉五街交叉口往北150米",
                "tel": "0352-4058887",
                "distance": null
            }, {
                "id": "B0FFG1DUYH",
                "name": "盛园饭店",
                "type": "餐饮服务;中餐厅;中餐厅",
                "location": {
                    "w": 40.008104,
                    "r": 113.14909999999998,
                    "lng": 113.1491,
                    "lat": 40.008104
                },
                "address": "泉五街友谊医院(交通街)附近",
                "tel": "15034213581",
                "distance": null
            }, {
                "id": "B0FFG1DUWP",
                "name": "老王鸡肉鸡杂馆",
                "type": "餐饮服务;中餐厅;中餐厅",
                "location": {
                    "w": 40.00787,
                    "r": 113.14917000000003,
                    "lng": 113.14917,
                    "lat": 40.00787
                },
                "address": "泉五街友谊医院(交通街)附近",
                "tel": "",
                "distance": null
            }, {
                "id": "B0FFG1DUTU",
                "name": "日日红饭店",
                "type": "餐饮服务;中餐厅;中餐厅",
                "location": {
                    "w": 40.008174,
                    "r": 113.14892800000001,
                    "lng": 113.148928,
                    "lat": 40.008174
                },
                "address": "泉五街友谊医院(交通街)附近",
                "tel": "",
                "distance": null
            }]
        }, {
            "id": 20409,
            "status": 1,
            "name": "浑源民康医院",
            "slug": "hunyuanminkangyiyuan",
            "type": 5,
            "poi": [{
                "id": "B01600MHEJ",
                "name": "浑源民康医院",
                "type": "医疗保健服务;综合医院;综合医院",
                "location": {
                    "w": 39.705187,
                    "r": 113.69642499999998,
                    "lng": 113.696425,
                    "lat": 39.705187
                },
                "address": "恒山北路",
                "tel": "",
                "distance": null
            }, {
                "id": "B01600018G",
                "name": "民康医院",
                "type": "医疗保健服务;综合医院;综合医院",
                "location": {
                    "w": 39.699842,
                    "r": 113.69905699999998,
                    "lng": 113.699057,
                    "lat": 39.699842
                },
                "address": "永安东街附近",
                "tel": "",
                "distance": null
            }, {
                "id": "B0FFFYQ7PR",
                "name": "重庆小吃",
                "type": "餐饮服务;中餐厅;中餐厅",
                "location": {
                    "w": 39.699766,
                    "r": 113.69900999999999,
                    "lng": 113.69901,
                    "lat": 39.699766
                },
                "address": "永安东街民康医院附近",
                "tel": "",
                "distance": null
            }, {
                "id": "B0FFFYSRGR",
                "name": "串串叔叔",
                "type": "餐饮服务;中餐厅;中餐厅",
                "location": {
                    "w": 39.699772,
                    "r": 113.698801,
                    "lng": 113.698801,
                    "lat": 39.699772
                },
                "address": "永安东街民康医院附近",
                "tel": "",
                "distance": null
            }, {
                "id": "B0FFFYKN7F",
                "name": "富贵裤业",
                "type": "购物服务;服装鞋帽皮具店;服装鞋帽皮具店",
                "location": {
                    "w": 39.699775,
                    "r": 113.69930799999997,
                    "lng": 113.699308,
                    "lat": 39.699775
                },
                "address": "永安东街民康医院附近",
                "tel": "",
                "distance": null
            }, {
                "id": "B0FFFYF87V",
                "name": "尚品街",
                "type": "购物服务;服装鞋帽皮具店;服装鞋帽皮具店",
                "location": {
                    "w": 39.699706,
                    "r": 113.698958,
                    "lng": 113.698958,
                    "lat": 39.699706
                },
                "address": "永安东街民康医院附近",
                "tel": "",
                "distance": null
            }, {
                "id": "B0FFFYS51F",
                "name": "唯一专业美发沙龙",
                "type": "生活服务;美容美发店;美容美发店",
                "location": {
                    "w": 39.699775,
                    "r": 113.69857400000001,
                    "lng": 113.698574,
                    "lat": 39.699775
                },
                "address": "永安东街民康医院附近",
                "tel": "",
                "distance": null
            }, {
                "id": "B0FFFYQT21",
                "name": "逸丝风尚(精致店)",
                "type": "生活服务;美容美发店;美容美发店",
                "location": {
                    "w": 39.699907,
                    "r": 113.69856500000003,
                    "lng": 113.698565,
                    "lat": 39.699907
                },
                "address": "永安东街民康医院附近",
                "tel": "",
                "distance": null
            }, {
                "id": "B0FFFYJ1X9",
                "name": "特莱维专业护肤中心",
                "type": "生活服务;美容美发店;美容美发店",
                "location": {
                    "w": 39.699834,
                    "r": 113.69921699999998,
                    "lng": 113.699217,
                    "lat": 39.699834
                },
                "address": "永安东街民康医院附近",
                "tel": "15103524299",
                "distance": null
            }, {
                "id": "B01600018N",
                "name": "浙江美波",
                "type": "生活服务;美容美发店;美容美发店",
                "location": {
                    "w": 39.699699,
                    "r": 113.69868500000001,
                    "lng": 113.698685,
                    "lat": 39.699699
                },
                "address": "永安东街民康医院附近",
                "tel": "",
                "distance": null
            }]
        }, {
            "id": 20340,
            "status": 1,
            "name": "口泉火车站",
            "slug": "kouquanhuochezhan",
            "type": 2,
            "poi": [{
                "id": "BV10546095",
                "name": "口泉站(公交站)",
                "type": "交通设施服务;公交车站;公交车站相关",
                "location": {
                    "w": 40.013043,
                    "r": 113.14428099999998,
                    "lng": 113.144281,
                    "lat": 40.013043
                },
                "address": "5路",
                "tel": "",
                "distance": null
            }, {
                "id": "B0FFF2P14W",
                "name": "大同口泉站",
                "type": "交通设施服务;火车站;火车站",
                "location": {
                    "w": 40.008494,
                    "r": 113.141322,
                    "lng": 113.141322,
                    "lat": 40.008494
                },
                "address": "同泉西路附近",
                "tel": "0352-7150212",
                "distance": null
            }, {
                "id": "B01600MLVK",
                "name": "中国石化口泉加油站(泉新路)",
                "type": "汽车服务;加油站;中国石化",
                "location": {
                    "w": 40.017881,
                    "r": 113.15205800000001,
                    "lng": 113.152058,
                    "lat": 40.017881
                },
                "address": "泉新路226号",
                "tel": "0352-4041625",
                "distance": null
            }, {
                "id": "B0160006HI",
                "name": "大秦铁路股份有限公司口泉站",
                "type": "公司企业;公司;公司",
                "location": {
                    "w": 40.00844,
                    "r": 113.141031,
                    "lng": 113.141031,
                    "lat": 40.00844
                },
                "address": "同泉西路附近",
                "tel": "",
                "distance": null
            }, {
                "id": "B0FFFGUKCI",
                "name": "大秦铁路股份有限公司口泉站(东南门)",
                "type": "公司企业;公司;公司",
                "location": {
                    "w": 40.008383,
                    "r": 113.14116200000001,
                    "lng": 113.141162,
                    "lat": 40.008383
                },
                "address": "同泉西路大同口泉站附近",
                "tel": "",
                "distance": null
            }, {
                "id": "B01600MGCT",
                "name": "大同口泉水泥厂",
                "type": "公司企业;工厂;工厂",
                "location": {
                    "w": 40.014245,
                    "r": 113.14024899999998,
                    "lng": 113.140249,
                    "lat": 40.014245
                },
                "address": "口泉站附近",
                "tel": "",
                "distance": null
            }, {
                "id": "B0160000DN",
                "name": "大同交通征费稽查处口泉征稽站",
                "type": "政府机构及社会团体;交通车辆管理;交通管理机构",
                "location": {
                    "w": 39.999261,
                    "r": 113.16485699999998,
                    "lng": 113.164857,
                    "lat": 39.999261
                },
                "address": "康杰医院附近",
                "tel": "",
                "distance": null
            }, {
                "id": "B0160006HB",
                "name": "口泉乡人民政府",
                "type": "政府机构及社会团体;政府机关;乡镇级政府及事业单位",
                "location": {
                    "w": 40.007262,
                    "r": 113.14873699999998,
                    "lng": 113.148737,
                    "lat": 40.007262
                },
                "address": "五一街",
                "tel": "0352-4052200",
                "distance": null
            }, {
                "id": "B0FFFEWCKF",
                "name": "东海渔村(口泉店)",
                "type": "住宿服务;宾馆酒店;宾馆酒店",
                "location": {
                    "w": 40.006996,
                    "r": 113.14043500000002,
                    "lng": 113.140435,
                    "lat": 40.006996
                },
                "address": "口泉火车站办公大楼南侧100米",
                "tel": "",
                "distance": null
            }, {
                "id": "B0FFFEXUVC",
                "name": "金鑫食府(五一路)",
                "type": "餐饮服务;中餐厅;中餐厅",
                "location": {
                    "w": 40.007938,
                    "r": 113.14092399999998,
                    "lng": 113.140924,
                    "lat": 40.007938
                },
                "address": "口泉站办公楼旁",
                "tel": "0352-4054480;0352-4055788",
                "distance": null
            }]
        }, {
            "id": 20343,
            "status": 1,
            "name": "大同火车站",
            "slug": "datonghuochezhan",
            "type": 2,
            "poi": [{
                "id": "B0160002SA",
                "name": "大同站",
                "type": "交通设施服务;火车站;火车站",
                "location": {
                    "w": 40.119902,
                    "r": 113.302324,
                    "lng": 113.302324,
                    "lat": 40.119902
                },
                "address": "站前街4号",
                "tel": "0352-7122922",
                "distance": null
            }, {
                "id": "B016000D11",
                "name": "大同县站",
                "type": "交通设施服务;火车站;火车站",
                "location": {
                    "w": 40.018851,
                    "r": 113.65789899999999,
                    "lng": 113.657899,
                    "lat": 40.018851
                },
                "address": "",
                "tel": "",
                "distance": null
            }, {
                "id": "B0160003IS",
                "name": "东河南站",
                "type": "交通设施服务;火车站;火车站",
                "location": {
                    "w": 39.372306,
                    "r": 114.03371600000003,
                    "lng": 114.033716,
                    "lat": 39.372306
                },
                "address": "",
                "tel": "",
                "distance": null
            }, {
                "id": "BV10353158",
                "name": "大同火车站(公交站)",
                "type": "交通设施服务;公交车站;公交车站相关",
                "location": {
                    "w": 40.118958,
                    "r": 113.30116299999997,
                    "lng": 113.301163,
                    "lat": 40.118958
                },
                "address": "601路",
                "tel": "",
                "distance": null
            }, {
                "id": "BV10476888",
                "name": "大同火车站(大地旅馆)(公交站)",
                "type": "交通设施服务;公交车站;公交车站相关",
                "location": {
                    "w": 40.120277,
                    "r": 113.30173500000001,
                    "lng": 113.301735,
                    "lat": 40.120277
                },
                "address": "601路",
                "tel": "",
                "distance": null
            }, {
                "id": "B0FFFGUZC7",
                "name": "大同凤凰商务酒店(火车站店)",
                "type": "住宿服务;宾馆酒店;宾馆酒店",
                "location": {
                    "w": 40.124395,
                    "r": 113.308179,
                    "lng": 113.308179,
                    "lat": 40.124395
                },
                "address": "大同火车站东北苑路雁北煤校旁",
                "tel": "0352-6061999",
                "distance": null
            }, {
                "id": "B0FFF4BAZV",
                "name": "绿岛青年旅舍(大同火车站店)",
                "type": "住宿服务;住宿服务相关;住宿服务相关",
                "location": {
                    "w": 40.118831,
                    "r": 113.30049400000001,
                    "lng": 113.300494,
                    "lat": 40.118831
                },
                "address": "魏都大道巴黎华庭10栋3单元(近大同汽车站大同古城新建康医院儿童公园)",
                "tel": "15835244211",
                "distance": null
            }, {
                "id": "B0FFFEVLPP",
                "name": "一嗨租车(大同火车站店)",
                "type": "汽车服务;汽车租赁;汽车租赁",
                "location": {
                    "w": 40.111599,
                    "r": 113.28917100000001,
                    "lng": 113.289171,
                    "lat": 40.111599
                },
                "address": "新建北路甲17号",
                "tel": "0352-2533892",
                "distance": null
            }, {
                "id": "B0FFG0J5N6",
                "name": "赛龙汽车租赁(大同火车站店)",
                "type": "汽车服务;汽车租赁;汽车租赁还车",
                "location": {
                    "w": 40.120248,
                    "r": 113.30202099999997,
                    "lng": 113.302021,
                    "lat": 40.120248
                },
                "address": "火车站站前街交警三大队旁边",
                "tel": "0352-3337774",
                "distance": null
            }, {
                "id": "B016000593",
                "name": "中铁快运(大同站营业部)",
                "type": "生活服务;物流速递;物流速递",
                "location": {
                    "w": 40.118886,
                    "r": 113.30354399999999,
                    "lng": 113.303544,
                    "lat": 40.118886
                },
                "address": "大同火车站站前街5号",
                "tel": "",
                "distance": null
            }]
        }, {
            "id": 20411,
            "status": 1,
            "name": "浑源汽车站",
            "slug": "hunyuanqichezhan",
            "type": 8,
            "poi": [{
                "id": "B01600MH29",
                "name": "浑源县汽车站",
                "type": "交通设施服务;长途汽车站;长途汽车站",
                "location": {
                    "w": 39.684312,
                    "r": 113.68746599999997,
                    "lng": 113.687466,
                    "lat": 39.684312
                },
                "address": "203省道附近",
                "tel": "0352-8452277",
                "distance": null
            }, {
                "id": "B01600MFS4",
                "name": "浑源县公共客运汽车管理站",
                "type": "政府机构及社会团体;政府机关;区县级政府及事业单位",
                "location": {
                    "w": 39.699353,
                    "r": 113.69863499999997,
                    "lng": 113.698635,
                    "lat": 39.699353
                },
                "address": "永安东街附近",
                "tel": "",
                "distance": null
            }, {
                "id": "B01600MIO3",
                "name": "浑源服务区加油站",
                "type": "汽车服务;加油站;加油站",
                "location": {
                    "w": 39.650295,
                    "r": 113.64617199999998,
                    "lng": 113.646172,
                    "lat": 39.650295
                },
                "address": "荣乌高速浑源服务区北侧",
                "tel": "",
                "distance": null
            }, {
                "id": "B01600MIO2",
                "name": "浑源服务区加油站",
                "type": "汽车服务;加油站;加油站",
                "location": {
                    "w": 39.649424,
                    "r": 113.64570300000003,
                    "lng": 113.645703,
                    "lat": 39.649424
                },
                "address": "浑源服务区附近",
                "tel": "",
                "distance": null
            }, {
                "id": "B016000JX3",
                "name": "中国石油浑源第3加油站",
                "type": "汽车服务;加油站;中国石油",
                "location": {
                    "w": 39.727635,
                    "r": 113.72866199999999,
                    "lng": 113.728662,
                    "lat": 39.727635
                },
                "address": "303省道附近",
                "tel": "",
                "distance": null
            }, {
                "id": "B016000JLM",
                "name": "中国石化加油站(浑源县邮政局)",
                "type": "汽车服务;加油站;中国石化",
                "location": {
                    "w": 39.706054,
                    "r": 113.69316600000002,
                    "lng": 113.693166,
                    "lat": 39.706054
                },
                "address": "迎宾东街",
                "tel": "",
                "distance": null
            }, {
                "id": "B0FFG7IQPD",
                "name": "中国石油城关加油站(浑源五中北)",
                "type": "汽车服务;加油站;中国石油",
                "location": {
                    "w": 39.691251,
                    "r": 113.67569600000002,
                    "lng": 113.675696,
                    "lat": 39.691251
                },
                "address": "303省道",
                "tel": "",
                "distance": null
            }, {
                "id": "B016000JYS",
                "name": "中国石油加油站(龙山村)",
                "type": "汽车服务;加油站;中国石油",
                "location": {
                    "w": 39.671327,
                    "r": 113.65094299999998,
                    "lng": 113.650943,
                    "lat": 39.671327
                },
                "address": "东坊城村段朔蔚公路路南(浑源到应县)",
                "tel": "0352-8425020",
                "distance": null
            }, {
                "id": "B0FFFPGKAU",
                "name": "恒山饭店(和顺北路)",
                "type": "餐饮服务;中餐厅;中餐厅|住宿服务;宾馆酒店;三星级宾馆",
                "location": {
                    "w": 39.703894,
                    "r": 113.69498099999998,
                    "lng": 113.694981,
                    "lat": 39.703894
                },
                "address": "恒山北路原汽车站对面",
                "tel": "0352-8330102;0352-8324419",
                "distance": null
            }, {
                "id": "B016000JLZ",
                "name": "中国石油加油站",
                "type": "汽车服务;加油站;中国石油",
                "location": {
                    "w": 39.711996,
                    "r": 113.717151,
                    "lng": 113.717151,
                    "lat": 39.711996
                },
                "address": "303省道",
                "tel": "",
                "distance": null
            }]
        }, {
            "id": 20342,
            "status": 1,
            "name": "中国雕塑博物馆",
            "slug": "zhongguodiaosubowuguan",
            "type": 3,
            "poi": [{
                "id": "B01600N5QE",
                "name": "中国雕塑博物馆",
                "type": "科教文化服务;博物馆;博物馆",
                "location": {
                    "w": 40.101721,
                    "r": 113.30235900000002,
                    "lng": 113.302359,
                    "lat": 40.101721
                },
                "address": "武定门内街北城墙瓮城内",
                "tel": "",
                "distance": null
            }]
        }, {
            "id": 9610,
            "status": 1,
            "name": "云冈石窟",
            "slug": "yungangshiku",
            "type": 3,
            "poi": [{
                "id": "B0160001P5",
                "name": "云冈石窟",
                "type": "风景名胜;风景名胜;世界遗产",
                "location": {
                    "w": 40.111345,
                    "r": 113.13589000000002,
                    "lng": 113.13589,
                    "lat": 40.111345
                },
                "address": "云冈镇",
                "tel": "0352-3029625",
                "distance": null
            }, {
                "id": "BV10086492",
                "name": "云冈石窟(公交站)",
                "type": "交通设施服务;公交车站;公交车站相关",
                "location": {
                    "w": 40.108615,
                    "r": 113.14680099999998,
                    "lng": 113.146801,
                    "lat": 40.108615
                },
                "address": "3路;37路",
                "tel": "",
                "distance": null
            }, {
                "id": "B0FFG24ZBM",
                "name": "云冈石窟(出口)",
                "type": "交通设施服务;交通服务相关;交通服务相关",
                "location": {
                    "w": 40.108604,
                    "r": 113.141615,
                    "lng": 113.141615,
                    "lat": 40.108604
                },
                "address": "云冈镇",
                "tel": "",
                "distance": null
            }, {
                "id": "B0FFFGVYVV",
                "name": "云冈石窟(北门)",
                "type": "风景名胜;风景名胜;世界遗产",
                "location": {
                    "w": 40.113412,
                    "r": 113.12658499999998,
                    "lng": 113.126585,
                    "lat": 40.113412
                },
                "address": "云冈镇云冈石窟",
                "tel": "",
                "distance": null
            }, {
                "id": "B01600MGBM",
                "name": "云冈石窟(南门)",
                "type": "风景名胜;风景名胜;世界遗产",
                "location": {
                    "w": 40.10853,
                    "r": 113.145779,
                    "lng": 113.145779,
                    "lat": 40.10853
                },
                "address": "云冈镇云冈石窟",
                "tel": "",
                "distance": null
            }, {
                "id": "B01600MIAA",
                "name": "云冈石窟停车场",
                "type": "交通设施服务;停车场;公共停车场",
                "location": {
                    "w": 40.111488,
                    "r": 113.14509299999997,
                    "lng": 113.145093,
                    "lat": 40.111488
                },
                "address": "云冈镇云冈石窟",
                "tel": "",
                "distance": null
            }, {
                "id": "B01600MI80",
                "name": "云冈石窟停车场",
                "type": "交通设施服务;停车场;公共停车场",
                "location": {
                    "w": 40.113612,
                    "r": 113.12646000000001,
                    "lng": 113.12646,
                    "lat": 40.113612
                },
                "address": "云冈镇云冈石窟",
                "tel": "",
                "distance": null
            },