{
    "data": {
        "landmarks": [{
            "id": 20654,
            "status": 1,
            "name": "虎头山生态园",
            "slug": "hutoushanshengtaiyuan",
            "type": 3,
            "poi": [{
                "id": "B017B00GTZ",
                "name": "虎头山生态公园",
                "type": "风景名胜;公园广场;公园",
                "location": {
                    "w": 34.744525,
                    "r": 112.79778199999998,
                    "lng": 112.797782,
                    "lat": 34.744525
                },
                "address": "槐新北路北段",
                "tel": "",
                "distance": null
            }, {
                "id": "B0FFFCM9BH",
                "name": "偃师市虎头山生态公园管理处",
                "type": "风景名胜;公园广场;公园广场",
                "location": {
                    "w": 34.742559,
                    "r": 112.79601500000001,
                    "lng": 112.796015,
                    "lat": 34.742559
                },
                "address": "槐新北路北段虎头山生态公园附近",
                "tel": "",
                "distance": null
            }]
        }, {
            "id": 278,
            "status": 1,
            "name": "洛阳站",
            "slug": "luoyangzhan",
            "type": 2,
            "poi": [{
                "id": "B017B011IO",
                "name": "洛阳站",
                "type": "交通设施服务;火车站;火车站",
                "location": {
                    "w": 34.685846,
                    "r": 112.436039,
                    "lng": 112.436039,
                    "lat": 34.685846
                },
                "address": "道南路1号",
                "tel": "0379-62561222;0379-62561442",
                "distance": null
            }, {
                "id": "BV10098071",
                "name": "洛阳站(公交站)",
                "type": "交通设施服务;公交车站;公交车站相关",
                "location": {
                    "w": 34.682026,
                    "r": 112.43746199999998,
                    "lng": 112.437462,
                    "lat": 34.682026
                },
                "address": "2路;5路;6路;11路;28路;33路;40路;41路...",
                "tel": "",
                "distance": null
            }, {
                "id": "B017B02U7H",
                "name": "洛阳龙门站",
                "type": "交通设施服务;火车站;火车站",
                "location": {
                    "w": 34.593815,
                    "r": 112.45833700000003,
                    "lng": 112.458337,
                    "lat": 34.593815
                },
                "address": "龙门大道",
                "tel": "",
                "distance": null
            }, {
                "id": "BV10410106",
                "name": "洛阳站(站前广场)(公交站)",
                "type": "交通设施服务;公交车站;公交车站相关",
                "location": {
                    "w": 34.684704,
                    "r": 112.435066,
                    "lng": 112.435066,
                    "lat": 34.684704
                },
                "address": "14路",
                "tel": "",
                "distance": null
            }, {
                "id": "B0FFFCN9GF",
                "name": "洛阳站(南出站口)",
                "type": "交通设施服务;火车站;火车站",
                "location": {
                    "w": 34.685952,
                    "r": 112.43499199999997,
                    "lng": 112.434992,
                    "lat": 34.685952
                },
                "address": "站前路洛阳站",
                "tel": "",
                "distance": null
            }, {
                "id": "B0FFFCN4S8",
                "name": "洛阳站(东进站口)",
                "type": "交通设施服务;火车站;火车站",
                "location": {
                    "w": 34.685849,
                    "r": 112.436036,
                    "lng": 112.436036,
                    "lat": 34.685849
                },
                "address": "站前路洛阳站",
                "tel": "",
                "distance": null
            }, {
                "id": "BV10098546",
                "name": "洛阳站(春晴路金谷园路口)(公交站)",
                "type": "交通设施服务;公交车站;公交车站相关",
                "location": {
                    "w": 34.682247,
                    "r": 112.438065,
                    "lng": 112.438065,
                    "lat": 34.682247
                },
                "address": "52路;62路",
                "tel": "",
                "distance": null
            }, {
                "id": "BV10441376",
                "name": "洛阳站(道南路纱厂北路口)(公交站)",
                "type": "交通设施服务;公交车站;公交车站相关",
                "location": {
                    "w": 34.684795,
                    "r": 112.43048899999997,
                    "lng": 112.430489,
                    "lat": 34.684795
                },
                "address": "5路",
                "tel": "",
                "distance": null
            }, {
                "id": "BV10551110",
                "name": "洛阳火车站(公交站)",
                "type": "交通设施服务;公交车站;公交车站相关",
                "location": {
                    "w": 34.685352,
                    "r": 112.434981,
                    "lng": 112.434981,
                    "lat": 34.685352
                },
                "address": "41路;83路",
                "tel": "",
                "distance": null
            }, {
                "id": "B017B00524",
                "name": "洛阳东站",
                "type": "交通设施服务;火车站;火车站",
                "location": {
                    "w": 34.696769,
                    "r": 112.48616800000002,
                    "lng": 112.486168,
                    "lat": 34.696769
                },
                "address": "新安街(近东花坛)",
                "tel": "0379-62722222",
                "distance": null
            }]
        }, {
            "id": 14818,
            "status": 1,
            "name": "重渡沟杏花园6号",
            "slug": "zhongdugouxinghuayuan6hao",
            "type": 3,
            "poi": [{
                "id": "B0FFFHOT3A",
                "name": "洛阳重渡沟杏花园8号宾馆",
                "type": "住宿服务;住宿服务相关;住宿服务相关",
                "location": {
                    "w": 33.942563,
                    "r": 111.71877899999998,
                    "lng": 111.718779,
                    "lat": 33.942563
                },
                "address": "重渡沟前区杏花园8号",
                "tel": "15038573312",
                "distance": null
            }]
        }, {
            "id": 17858,
            "status": 1,
            "name": "新安县中医院",
            "slug": "xinanxianzhongyiyuan",
            "type": 5,
            "poi": [{
                "id": "B017B00474",
                "name": "新安县中医院",
                "type": "医疗保健服务;综合医院;综合医院",
                "location": {
                    "w": 34.729102,
                    "r": 112.135764,
                    "lng": 112.135764,
                    "lat": 34.729102
                },
                "address": "南京路95号",
                "tel": "0379-67261839;0379-67280755",
                "distance": null
            }, {
                "id": "B0FFFEW3DT",
                "name": "新安县中医院(西门)",
                "type": "医疗保健服务;综合医院;综合医院",
                "location": {
                    "w": 34.729023,
                    "r": 112.13557300000002,
                    "lng": 112.135573,
                    "lat": 34.729023
                },
                "address": "南京路95",
                "tel": "",
                "distance": null
            }, {
                "id": "B017B0PX23",
                "name": "新安县中医院-急诊",
                "type": "医疗保健服务;综合医院;综合医院",
                "location": {
                    "w": 34.729034,
                    "r": 112.13603999999998,
                    "lng": 112.13604,
                    "lat": 34.729034
                },
                "address": "南京路95新安县中医院",
                "tel": "",
                "distance": null
            }, {
                "id": "B017B0PWKV",
                "name": "新安县中医院-门诊部",
                "type": "医疗保健服务;综合医院;综合医院",
                "location": {
                    "w": 34.729034,
                    "r": 112.13605000000001,
                    "lng": 112.13605,
                    "lat": 34.729034
                },
                "address": "南京路95新安县中医院",
                "tel": "",
                "distance": null
            }, {
                "id": "B017B0PWIX",
                "name": "新安县中医院-住院部",
                "type": "医疗保健服务;综合医院;综合医院",
                "location": {
                    "w": 34.728874,
                    "r": 112.13673399999999,
                    "lng": 112.136734,
                    "lat": 34.728874
                },
                "address": "南京路95新安县中医院",
                "tel": "",
                "distance": null
            }, {
                "id": "B0FFF0A08N",
                "name": "新安县中医院-发热门诊",
                "type": "医疗保健服务;医疗保健服务场所;医疗保健服务场所",
                "location": {
                    "w": 34.729042,
                    "r": 112.13587000000001,
                    "lng": 112.13587,
                    "lat": 34.729042
                },
                "address": "南京路95附近",
                "tel": "",
                "distance": null
            }, {
                "id": "B0FFF2KMQC",
                "name": "新安县中医院-妇产科门诊",
                "type": "医疗保健服务;综合医院;综合医院",
                "location": {
                    "w": 34.72875,
                    "r": 112.13641999999999,
                    "lng": 112.13642,
                    "lat": 34.72875
                },
                "address": "中医院康复科",
                "tel": "",
                "distance": null
            }, {
                "id": "B0FFG0D1NH",
                "name": "新安县中医院-核磁共振",
                "type": "医疗保健服务;医疗保健服务场所;医疗保健服务场所",
                "location": {
                    "w": 34.728816,
                    "r": 112.13668999999999,
                    "lng": 112.13669,
                    "lat": 34.728816
                },
                "address": "绿苑路附近",
                "tel": "",
                "distance": null
            }, {
                "id": "B0FFG0KSK8",
                "name": "新安县中医院-微创介入科",
                "type": "医疗保健服务;医疗保健服务场所;医疗保健服务场所",
                "location": {
                    "w": 34.729035,
                    "r": 112.13589000000002,
                    "lng": 112.13589,
                    "lat": 34.729035
                },
                "address": "南京路95附近",
                "tel": "",
                "distance": null
            }, {
                "id": "B0FFG0HY0Z",
                "name": "新安县中医院-128螺旋CT",
                "type": "医疗保健服务;医疗保健服务场所;医疗保健服务场所",
                "location": {
                    "w": 34.728816,
                    "r": 112.13668999999999,
                    "lng": 112.13669,
                    "lat": 34.728816
                },
                "address": "绿苑路附近",
                "tel": "",
                "distance": null
            }]
        }, {
            "id": 14089,
            "status": 1,
            "name": "鸡冠洞彩云网络宾馆饭店",
            "slug": "jiguandongcaiyunwangluobinguanfandian",
            "type": 3
        }, {
            "id": 18390,
            "status": 1,
            "name": "汝阳县中医院",
            "slug": "ruyangxianzhongyiyuan",
            "type": 5,
            "poi": [{
                "id": "B0FFF2KVOQ",
                "name": "汝阳县中医院急诊",
                "type": "医疗保健服务;医疗保健服务场所;医疗保健服务场所",
                "location": {
                    "w": 34.15009,
                    "r": 112.48068899999998,
                    "lng": 112.480689,
                    "lat": 34.15009
                },
                "address": "刘伶路附近",
                "tel": "",
                "distance": null
            }, {
                "id": "B0FFF2BDIX",
                "name": "汝阳县中医院门诊楼",
                "type": "医疗保健服务;医疗保健服务场所;医疗保健服务场所",
                "location": {
                    "w": 34.150154,
                    "r": 112.48091999999997,
                    "lng": 112.48092,
                    "lat": 34.150154
                },
                "address": "刘伶路附近",
                "tel": "",
                "distance": null
            }, {
                "id": "B0FFF2XVDI",
                "name": "汝阳县中医院住院部",
                "type": "医疗保健服务;医疗保健服务场所;医疗保健服务场所",
                "location": {
                    "w": 34.150347,
                    "r": 112.48140899999999,
                    "lng": 112.481409,
                    "lat": 34.150347
                },
                "address": "杜鹃大道汝阳中医院(汝阳交通运输局西南)附近",
                "tel": "",
                "distance": null
            }, {
                "id": "B0FFF2M9MB",
                "name": "汝阳县中医院医院超市",
                "type": "购物服务;超级市场;超市",
                "location": {
                    "w": 34.150309,
                    "r": 112.48187000000001,
                    "lng": 112.48187,
                    "lat": 34.150309
                },
                "address": "",
                "tel": "",
                "distance": null
            }]
        }, {
            "id": 18724,
            "status": 1,
            "name": "偃师人民医院",
            "slug": "yanshirenminyiyuan",
            "type": 5,
            "poi": [{
                "id": "B017B00M0W",
                "name": "偃师人民医院",
                "type": "医疗保健服务;综合医院;综合医院",
                "location": {
                    "w": 34.721406,
                    "r": 112.79755,
                    "lng": 112.79755,
                    "lat": 34.721406
                },
                "address": "商都东路95号",
                "tel": "0379-67734097;0379-67712578",
                "distance": null
            }, {
                "id": "B017B0Q0LV",
                "name": "偃师市人民医院(北院)",
                "type": "医疗保健服务;综合医院;综合医院",
                "location": {
                    "w": 34.722095,
                    "r": 112.79772000000003,
                    "lng": 112.79772,
                    "lat": 34.722095
                },
                "address": "商都东路118号",
                "tel": "0379-67734097",
                "distance": null
            }, {
                "id": "B0FFFEVA23",
                "name": "偃师市人民医院(北门)",
                "type": "医疗保健服务;综合医院;综合医院",
                "location": {
                    "w": 34.721697,
                    "r": 112.79749500000003,
                    "lng": 112.797495,
                    "lat": 34.721697
                },
                "address": "商都路114附近",
                "tel": "",
                "distance": null
            }, {
                "id": "B017B0QAVA",
                "name": "偃师市人民医院-急诊",
                "type": "医疗保健服务;医疗保健服务场所;医疗保健服务场所",
                "location": {
                    "w": 34.721458,
                    "r": 112.79736000000003,
                    "lng": 112.79736,
                    "lat": 34.721458
                },
                "address": "商都东路95附近",
                "tel": "",
                "distance": null
            }, {
                "id": "B017B0Q0K4",
                "name": "偃师人民医院-急救",
                "type": "医疗保健服务;综合医院;综合医院",
                "location": {
                    "w": 34.72146,
                    "r": 112.79736000000003,
                    "lng": 112.79736,
                    "lat": 34.72146
                },
                "address": "商都东路95附近",
                "tel": "",
                "distance": null
            }, {
                "id": "B017B00NAR",
                "name": "偃师第四人民医院",
                "type": "医疗保健服务;综合医院;综合医院",
                "location": {
                    "w": 34.722482,
                    "r": 112.77359100000001,
                    "lng": 112.773591,
                    "lat": 34.722482
                },
                "address": "商都南路46号",
                "tel": "0379-67729555;0379-67716735",
                "distance": null
            }, {
                "id": "B017B0PWLI",
                "name": "偃师市人民医院-病房楼",
                "type": "医疗保健服务;医疗保健服务场所;医疗保健服务场所",
                "location": {
                    "w": 34.720464,
                    "r": 112.79732000000001,
                    "lng": 112.79732,
                    "lat": 34.720464
                },
                "address": "洛神路附近",
                "tel": "",
                "distance": null
            }, {
                "id": "B0FFF2SP0T",
                "name": "偃师市人民医院北院停车场",
                "type": "交通设施服务;停车场;公共停车场",
                "location": {
                    "w": 34.722095,
                    "r": 112.79782999999998,
                    "lng": 112.79783,
                    "lat": 34.722095
                },
                "address": "商都路118附近",
                "tel": "",
                "distance": null
            }, {
                "id": "B017B0PSQE",
                "name": "偃师市人民医院北住院部",
                "type": "医疗保健服务;综合医院;综合医院",
                "location": {
                    "w": 34.721978,
                    "r": 112.79797500000001,
                    "lng": 112.797975,
                    "lat": 34.721978
                },
                "address": "商都东路118号",
                "tel": "0379-67734097",
                "distance": null
            }, {
                "id": "BV10532408",
                "name": "偃师市第四人民医院(公交站)",
                "type": "交通设施服务;公交车站;公交车站相关",
                "location": {
                    "w": 34.722958,
                    "r": 112.77388000000002,
                    "lng": 112.77388,
                    "lat": 34.722958
                },
                "address": "偃师7路",
                "tel": "",
                "distance": null
            }]
        }, {
            "id": 18726,
            "status": 1,
            "name": "偃师黄河医院",
            "slug": "yanshihuangheyiyuan",
            "type": 5,
            "poi": [{
                "id": "B017B02X3P",
                "name": "偃师黄河医院",
                "type": "医疗保健服务;综合医院;综合医院",
                "location": {
                    "w": 34.72496,
                    "r": 112.798746,
                    "lng": 112.798746,
                    "lat": 34.72496
                },
                "address": "兴隆路9号",
                "tel": "0379-67759111",
                "distance": null
            }, {
                "id": "B017B0QAVA",
                "name": "偃师市人民医院-急诊",
                "type": "医疗保健服务;医疗保健服务场所;医疗保健服务场所",
                "location": {
                    "w": 34.721458,
                    "r": 112.79736000000003,
                    "lng": 112.79736,
                    "lat": 34.721458
                },
                "address": "商都东路95附近",
                "tel": "",
                "distance": null
            }]
        }, {
            "id": 18386,
            "status": 1,
            "name": "张明禄烈士纪念馆",
            "slug": "zhangminglulieshijinianguan",
            "type": 3,
            "poi": [{
                "id": "B017B02AL2",
                "name": "张明禄烈士纪念馆",
                "type": "风景名胜;风景名胜;纪念馆",
                "location": {
                    "w": 34.152717,
                    "r": 112.465754,
                    "lng": 112.465754,
                    "lat": 34.152717
                },
                "address": "书院街48",
                "tel": "",
                "distance": null
            }, {
                "id": "B017B0PPIQ",
                "name": "汝阳县妇幼保健院家属楼",
                "type": "商务住宅;住宅区;宿舍",
                "location": {
                    "w": 34.153813,
                    "r": 112.465283,
                    "lng": 112.465283,
                    "lat": 34.153813
                },
                "address": "书院街张明禄烈士纪念馆附近",
                "tel": "",
                "distance": null
            }]
        }, {
            "id": 13864,
            "status": 1,
            "name": "重渡沟西沟86号农家宾馆",
            "slug": "zhongdugouxigou86haonongjiabinguan",
            "type": 3,
            "poi": [{
                "id": "B017B0PK4I",
                "name": "农家宾馆",
                "type": "住宿服务;宾馆酒店;宾馆酒店",
                "location": {
                    "w": 33.776926,
                    "r": 111.49566700000003,
                    "lng": 111.495667,
                    "lat": 33.776926
                },
                "address": "008乡道附近",
                "tel": "",
                "distance": 5861
            }, {
                "id": "B017B0PMEF",
                "name": "农家宾馆(008乡道)",
                "type": "住宿服务;宾馆酒店;宾馆酒店",
                "location": {
                    "w": 33.77557,
                    "r": 111.49189100000001,
                    "lng": 111.491891,
                    "lat": 33.77557
                },
                "address": "土门上附近",
                "tel": "",
                "distance": 5530
            }, {
                "id": "B0FFFCMBWI",
                "name": "雪瑞农家宾馆",
                "type": "住宿服务;宾馆酒店;宾馆酒店",
                "location": {
                    "w": 33.758076,
                    "r": 111.484377,
                    "lng": 111.484377,
                    "lat": 33.758076
                },
                "address": "洛阳栾川伏牛山滑雪场杨坪村",
                "tel": "15544215372",
                "distance": 5467
            }, {
                "id": "B0FFFCMBWV",
                "name": "亿博农家宾馆",
                "type": "住宿服务;宾馆酒店;宾馆酒店",
                "location": {
                    "w": 33.757032,
                    "r": 111.484823,
                    "lng": 111.484823,
                    "lat": 33.757032
                },
                "address": "008乡道附近",
                "tel": "",
                "distance": 5560
            }, {
                "id": "B0FFFE6N66",
                "name": "栾川伏牛山滑雪场温度1509农家宾馆",
                "type": "住宿服务;住宿服务相关;住宿服务相关",
                "location": {
                    "w": 33.75864,
                    "r": 111.48224900000002,
                    "lng": 111.482249,
                    "lat": 33.75864
                },
                "address": "洛阳栾川伏牛山滑雪场杨坪村",
                "tel": "18625411288",
                "distance": 5264
            }, {
                "id": "B0FFG0S9EV",
                "name": "27号农家",
                "type": "餐饮服务;中餐厅;中餐厅",
                "location": {
                    "w": 33.763737,
                    "r": 111.48873000000003,
                    "lng": 111.48873,
                    "lat": 33.763737
                },
                "address": "008乡道附近",
                "tel": "",
                "distance": 5567
            }, {
                "id": "B0FFFCMBWX",
                "name": "雪福农家乐",
                "type": "体育休闲服务;休闲场所;休闲场所",
                "location": {
                    "w": 33.756775,
                    "r": 111.48471,
                    "lng": 111.48471,
                    "lat": 33.756775
                },
                "address": "008乡道附近",
                "tel": "",
                "distance": 5565
            }, {
                "id": "B0FFG0G8DP",
                "name": "8号农家院",
                "type": "体育休闲服务;休闲场所;休闲场所",
                "location": {
                    "w": 33.763909,
                    "r": 111.48960999999997,
                    "lng": 111.48961,
                    "lat": 33.763909
                },
                "address": "008乡道附近",
                "tel": "",
                "distance": 5637
            }, {
                "id": "B0FFFFAOY2",
                "name": "洛阳周氏农家宾馆",
                "type": "住宿服务;住宿服务相关;住宿服务相关",
                "location": {
                    "w": 33.7432,
                    "r": 111.48541399999999,
                    "lng": 111.485414,
                    "lat": 33.7432
                },
                "address": "洛阳栾川伏牛山滑雪场旁",
                "tel": "18736350478",
                "distance": 6502
            }, {
                "id": "B0FFFFKNP9",
                "name": "洛阳孔氏农家宾馆",
                "type": "住宿服务;住宿服务相关;住宿服务相关",
                "location": {
                    "w": 33.743381,
                    "r": 111.485593,
                    "lng": 111.485593,
                    "lat": 33.743381
                },
                "address": "洛阳栾川伏牛山滑雪场旁",
                "tel": "18736352949",
                "distance": 6501
            }]
        }, {
            "id": 18385,
            "status": 1,
            "name": "汝阳汽车站",
            "slug": "ruyangqichezhan",
            "type": 8,
            "poi": [{
                "id": "B017B01WDJ",
                "name": "汝阳汽车站",
                "type": "交通设施服务;长途汽车站;长途汽车站",
                "location": {
                    "w": 34.153031,
                    "r": 112.48124899999999,
                    "lng": 112.481249,
                    "lat": 34.153031
                },
                "address": "杜康大道",
                "tel": "0379-68233110",
                "distance": null
            }, {
                "id": "B0FFG847JW",
                "name": "汝阳汽车站(东城商场西巷)",
                "type": "交通设施服务;长途汽车站;长途汽车站",
                "location": {
                    "w": 34.153072,
                    "r": 112.48203699999999,
                    "lng": 112.482037,
                    "lat": 34.153072
                },
                "address": "杜康大道东段595号金港国际附近",
                "tel": "",
                "distance": null
            }, {
                "id": "B0FFG4EQ5U",
                "name": "汝阳汽车站(西北门)",
                "type": "通行设施;建筑物门;建筑物门",
                "location": {
                    "w": 34.153232,
                    "r": 112.481946,
                    "lng": 112.481946,
                    "lat": 34.153232
                },
                "address": "杜康大道东段595号金港国际附近",
                "tel": "",
                "distance": null
            }, {
                "id": "B017B01N0R",
                "name": "中国石化汝阳古严加油站",
                "type": "汽车服务;加油站;中国石化",
                "location": {
                    "w": 34.157329,
                    "r": 112.49602800000002,
                    "lng": 112.496028,
                    "lat": 34.157329
                },
                "address": "城关镇古严村杜康大道东段",
                "tel": "0379-68217806;0379-95105988",
                "distance": null
            }, {
                "id": "B017B0300E",
                "name": "汝阳豫龙汽车城售后服务站",
                "type": "汽车维修;汽车综合维修;汽车综合维修",
                "location": {
                    "w": 34.162897,
                    "r": 112.47467599999999,
                    "lng": 112.474676,
                    "lat": 34.162897
                },
                "address": "汝白路附近",
                "tel": "",
                "distance": null
            }, {
                "id": "B0FFFS60XY",
                "name": "汝阳美宜家酒店(汽车站店)",
                "type": "住宿服务;宾馆酒店;宾馆酒店",
                "location": {
                    "w": 34.152701,
                    "r": 112.480974,
                    "lng": 112.480974,
                    "lat": 34.152701
                },
                "address": "杜康大道新汽车站门口",
                "tel": "0379-68636363",
                "distance": null
            }, {
                "id": "B017B0PS4M",
                "name": "汝阳县天金小汽车修理站",
                "type": "汽车维修;汽车综合维修;汽车综合维修",
                "location": {
                    "w": 34.159015,
                    "r": 112.47519,
                    "lng": 112.47519,
                    "lat": 34.159015
                },
                "address": "刘伶路北段气象局门口",
                "tel": "0379-68212882",
                "distance": null
            }, {
                "id": "B0FFFTGG0N",
                "name": "汝阳怡欣宾馆",
                "type": "住宿服务;住宿服务相关;住宿服务相关",
                "location": {
                    "w": 34.154402,
                    "r": 112.48129399999999,
                    "lng": 112.481294,
                    "lat": 34.154402
                },
                "address": "325省道(杜康大道东段)新汽车站对面东城商场西巷23号",
                "tel": "",
                "distance": null
            }, {
                "id": "B017B01N1N",
                "name": "汝阳服务区维修站",
                "type": "汽车维修;汽车综合维修;汽车综合维修",
                "location": {
                    "w": 34.255323,
                    "r": 112.54170999999997,
                    "lng": 112.54171,
                    "lat": 34.255323
                },
                "address": "汝阳服务区",
                "tel": "",
                "distance": null
            }, {
                "id": "B017B01N6L",
                "name": "汝阳服务区维修站",
                "type": "汽车维修;汽车综合维修;汽车综合维修",
                "location": {
                    "w": 34.2547,
                    "r": 112.54540099999997,
                    "lng": 112.545401,
                    "lat": 34.2547
                },
                "address": "汝阳服务区",
                "tel": "",
                "distance": null
            }]
        }, {
            "id": 18735,
            "status": 1,
            "name": "中成百货",
            "slug": "zhongchengbaihuo",
            "type": 6,
            "poi": [{
                "id": "B017B030VJ",
                "name": "中成百货",
                "type": "购物服务;商场;普通商场",
                "location": {
                    "w": 34.719873,
                    "r": 112.78665999999998,
                    "lng": 112.78666,
                    "lat": 34.719873
                },
                "address": "华夏路中段华夏购物广场东区1、2、3、4楼(花园东路)",
                "tel": "",
                "distance": null
            }, {
                "id": "B0FFF08S6C",
                "name": "中成百货(东门)",
                "type": "通行设施;建筑物门;建筑物门",
                "location": {
                    "w": 34.720002,
                    "r": 112.787194,
                    "lng": 112.787194,
                    "lat": 34.720002
                },
                "address": "花园东路附近",
                "tel": "",
                "distance": null
            }, {
                "id": "B0FFFYS3CU",
                "name": "中成百货(南门)",
                "type": "通行设施;建筑物门;建筑物正门",
                "location": {
                    "w": 34.71977,
                    "r": 112.78664500000002,
                    "lng": 112.786645,
                    "lat": 34.71977
                },
                "address": "花园西路10号附近",
                "tel": "",
                "distance": null
            }, {
                "id": "B0FFFEVSUG",
                "name": "中成百货停车场",
                "type": "交通设施服务;停车场;公共停车场",
                "location": {
                    "w": 34.719797,
                    "r": 112.78609599999999,
                    "lng": 112.786096,
                    "lat": 34.719797
                },
                "address": "华夏路附近",
                "tel": "",
                "distance": null
            }, {
                "id": "B017B0Q8PW",
                "name": "中国黄金(偃师店)",
                "type": "购物服务;专卖店;珠宝首饰工艺品",
                "location": {
                    "w": 34.722761,
                    "r": 112.79085299999997,
                    "lng": 112.790853,
                    "lat": 34.722761
                },
                "address": "中成百货",
                "tel": "0379-67688888",
                "distance": null
            }, {
                "id": "B0FFF4ZKL1",
                "name": "佰食惠美食花园",
                "type": "餐饮服务;中餐厅;中餐厅",
                "location": {
                    "w": 34.719811,
                    "r": 112.78686600000003,
                    "lng": 112.786866,
                    "lat": 34.719811
                },
                "address": "中成百货三楼",
                "tel": "18937973139",
                "distance": null
            }, {
                "id": "B0FFFOKREF",
                "name": "雨兰家纺",
                "type": "购物服务;家居建材市场;布艺市场",
                "location": {
                    "w": 34.719516,
                    "r": 112.7867,
                    "lng": 112.7867,
                    "lat": 34.719516
                },
                "address": "中成百货三楼",
                "tel": "",
                "distance": null
            }, {
                "id": "B0FFFEVSVV",
                "name": "秦汉王",
                "type": "餐饮服务;中餐厅;中餐厅",
                "location": {
                    "w": 34.719826,
                    "r": 112.78756699999997,
                    "lng": 112.787567,
                    "lat": 34.719826
                },
                "address": "中成百货东门",
                "tel": "",
                "distance": null
            }, {
                "id": "B0FFFEVV04",
                "name": "金盾(洛神路)",
                "type": "购物服务;服装鞋帽皮具店;服装鞋帽皮具店",
                "location": {
                    "w": 34.721863,
                    "r": 112.78604200000001,
                    "lng": 112.786042,
                    "lat": 34.721863
                },
                "address": "中成百货二楼",
                "tel": "",
                "distance": null
            }, {
                "id": "B0FFFORF7G",
                "name": "IENIN女装专卖",
                "type": "购物服务;专卖店;专营店",
                "location": {
                    "w": 34.719516,
                    "r": 112.786698,
                    "lng": 112.786698,
                    "lat": 34.719516
                },
                "address": "中成百货二楼",
                "tel": "",
                "distance": null
            }]
        }, {
            "id": 18728,
            "status": 1,
            "name": "偃师火车站",
            "slug": "yanshihuochezhan",
            "type": 2,
            "poi": [{
                "id": "B017B011IR",
                "name": "偃师火车站",
                "type": "交通设施服务;火车站;火车站",
                "location": {
                    "w": 34.728769,
                    "r": 112.79422399999999,
                    "lng": 112.794224,
                    "lat": 34.728769
                },
                "address": "车站路8号",
                "tel": "0379-65365991",
                "distance": null
            }, {
                "id": "BV10098992",
                "name": "偃师火车站(公交站)",
                "type": "交通设施服务;公交车站;公交车站相关",
                "location": {
                    "w": 34.728199,
                    "r": 112.79428899999999,
                    "lng": 112.794289,
                    "lat": 34.728199
                },
                "address": "偃师1路;偃师3路;偃师101路环线",
                "tel": "",
                "distance": null
            }, {
                "id": "B017B0Q07P",
                "name": "蓝星网吧",
                "type": "体育休闲服务;娱乐场所;网吧",
                "location": {
                    "w": 34.728024,
                    "r": 112.79518999999999,
                    "lng": 112.79519,
                    "lat": 34.728024
                },
                "address": "偃师火车站",
                "tel": "",
                "distance": null
            }, {
                "id": "B0FFFEVZ70",
                "name": "田记饭庄(分店)",
                "type": "餐饮服务;中餐厅;中餐厅",
                "location": {
                    "w": 34.727186,
                    "r": 112.792689,
                    "lng": 112.792689,
                    "lat": 34.727186
                },
                "address": "偃师火车站市委东邻",
                "tel": "0379-65363387",
                "distance": null
            }, {
                "id": "B0FFFEW6PJ",
                "name": "商务宾馆",
                "type": "住宿服务;宾馆酒店;宾馆酒店",
                "location": {
                    "w": 34.726813,
                    "r": 112.79439500000001,
                    "lng": 112.794395,
                    "lat": 34.726813
                },
                "address": "偃师火车站对面商务局大楼5-6层",
                "tel": "0379-62651888",
                "distance": null
            }]
        }, {
            "id": 18395,
            "status": 1,
            "name": "汝阳同济医院",
            "slug": "ruyangtongjiyiyuan",
            "type": 5,
            "poi": [{
                "id": "B017B0PJUB",
                "name": "汝阳同济医院",
                "type": "医疗保健服务;综合医院;综合医院",
                "location": {
                    "w": 34.150716,
                    "r": 112.47531100000003,
                    "lng": 112.475311,
                    "lat": 34.150716
                },
                "address": "城关镇杜康大道中段",
                "tel": "0379-68632222",
                "distance": null
            }, {
                "id": "B0FFG4HR4B",
                "name": "汝阳同济医院(西北门)",
                "type": "医疗保健服务;综合医院;综合医院",
                "location": {
                    "w": 34.150932,
                    "r": 112.475168,
                    "lng": 112.475168,
                    "lat": 34.150932
                },
                "address": "杜康大道中段41附近",
                "tel": "",
                "distance": null
            }]
        }, {
            "id": 18730,
            "status": 1,
            "name": "偃师妇幼保健院",
            "slug": "yanshifuyoubaojianyuan",
            "type": 5,
            "poi": [{
                "id": "B017B01HM8",
                "name": "偃师市妇幼保健院",
                "type": "医疗保健服务;专科医院;专科医院",
                "location": {
                    "w": 34.722268,
                    "r": 112.79624999999999,
                    "lng": 112.79625,
                    "lat": 34.722268
                },
                "address": "商都东路112号",
                "tel": "0379-67711739;0379-67777201",
                "distance": null
            }, {
                "id": "B0FFF07HNC",
                "name": "妇幼保健院婴儿洗浴中心",
                "type": "生活服务;洗浴推拿场所;洗浴推拿场所",
                "location": {
                    "w": 34.722344,
                    "r": 112.79623900000001,
                    "lng": 112.796239,
                    "lat": 34.722344
                },
                "address": "商都东路112号",
                "tel": "",
                "distance": null
            }, {
                "id": "B0FFF2T9VL",
                "name": "阳光印刷设计",
                "type": "生活服务;生活服务场所;生活服务场所",
                "location": {
                    "w": 34.722412,
                    "r": 112.79563000000002,
                    "lng": 112.79563,
                    "lat": 34.722412
                },
                "address": "妇幼保健院西30米",
                "tel": "0379-67753321;15937996808",
                "distance": null
            }, {
                "id": "B0FFF024FX",
                "name": "琪雅健康美容",
                "type": "生活服务;美容美发店;美容美发店",
                "location": {
                    "w": 34.722366,
                    "r": 112.79590000000002,
                    "lng": 112.7959,
                    "lat": 34.722366
                },
                "address": "商都路东段妇幼保健院西二十米",
                "tel": "",
                "distance": null
            }, {
                "id": "B017B01HMA",
                "name": "偃师市孕产妇急救中心",
                "type": "医疗保健服务;急救中心;急救中心",
                "location": {
                    "w": 34.722268,
                    "r": 112.79624999999999,
                    "lng": 112.79625,
                    "lat": 34.722268
                },
                "address": "商都东路112",
                "tel": "0379-67722120",
                "distance": null
            }]
        }, {
            "id": 18393,
            "status": 1,
            "name": "汝阳华山医院",
            "slug": "ruyanghuashanyiyuan",
            "type": 5,
            "poi": [{
                "id": "B0FFF06YW7",
                "name": "汝阳华山医院",
                "type": "医疗保健服务;综合医院;综合医院",
                "location": {
                    "w": 34.156847,
                    "r": 112.48027000000002,
                    "lng": 112.48027,
                    "lat": 34.156847
                },
                "address": "文化路3号",
                "tel": "",
                "distance": null
            }]
        }, {
            "id": 18375,
            "status": 1,
            "name": "嵩县人民医院",
            "slug": "songxianrenminyiyuan",
            "type": 5,
            "poi": [{
                "id": "B017B00E35",
                "name": "嵩县人民医院(建设路)",
                "type": "医疗保健服务;综合医院;综合医院",
                "location": {
                    "w": 34.129406,
                    "r": 112.08372300000002,
                    "lng": 112.083723,
                    "lat": 34.129406
                },
                "address": "建设路石磊街",
                "tel": "",
                "distance": null
            }, {
                "id": "B017B0PM7U",
                "name": "嵩县人民医院(新二街)",
                "type": "医疗保健服务;综合医院;综合医院",
                "location": {
                    "w": 33.959179,
                    "r": 112.16997800000001,
                    "lng": 112.169978,
                    "lat": 33.959179
                },
                "address": "247省道附近",
                "tel": "",
                "distance": null
            }, {
                "id": "B0FFF2BMGI",
                "name": "嵩县人民医院门诊部",
                "type": "医疗保健服务;综合医院;综合医院",
                "location": {
                    "w": 34.129215,
                    "r": 112.08371,
                    "lng": 112.08371,
                    "lat": 34.129215
                },
                "address": "建设路10附近",
                "tel": "",
                "distance": null
            }, {
                "id": "B0FFFCM3XH",
                "name": "嵩县人民医院康复部",
                "type": "医疗保健服务;综合医院;综合医院",
                "location": {
                    "w": 34.118749,
                    "r": 112.10555,
                    "lng": 112.10555,
                    "lat": 34.118749
                },
                "address": "人民路附近",
                "tel": "",
                "distance": null
            }, {
                "id": "B0FFG0EXP4",
                "name": "嵩县人民医院-体检中心",
                "type": "医疗保健服务;医疗保健服务场所;医疗保健服务场所",
                "location": {
                    "w": 34.129899,
                    "r": 112.08296999999999,
                    "lng": 112.08297,
                    "lat": 34.129899
                },
                "address": "嵩州路附近",
                "tel": "",
                "distance": null
            }, {
                "id": "B0FFG0IZLG",
                "name": "嵩县人民医院-医技部",
                "type": "医疗保健服务;医疗保健服务场所;医疗保健服务场所",
                "location": {
                    "w": 34.12945,
                    "r": 112.08269999999999,
                    "lng": 112.0827,
                    "lat": 34.12945
                },
                "address": "嵩州路附近",
                "tel": "",
                "distance": null
            }, {
                "id": "B017B01N3W",
                "name": "嵩县第三人民医院",
                "type": "医疗保健服务;综合医院;综合医院",
                "location": {
                    "w": 33.791964,
                    "r": 112.12247300000001,
                    "lng": 112.122473,
                    "lat": 33.791964
                },
                "address": "车村镇",
                "tel": "0379-66562120",
                "distance": null
            }, {
                "id": "B0FFFCN5QT",
                "name": "嵩县第四人民医院",
                "type": "医疗保健服务;综合医院;综合医院",
                "location": {
                    "w": 34.123907,
                    "r": 112.08241599999997,
                    "lng": 112.082416,
                    "lat": 34.123907
                },
                "address": "白云大道",
                "tel": "",
                "distance": null
            }, {
                "id": "B0FFG0H63H",
                "name": "嵩县人民医院-磁共振室",
                "type": "医疗保健服务;医疗保健服务场所;医疗保健服务场所",
                "location": {
                    "w": 34.130138,
                    "r": 112.083171,
                    "lng": 112.083171,
                    "lat": 34.130138
                },
                "address": "嵩州路357附近",
                "tel": "",
                "distance": null
            }, {
                "id": "B0FFFCLZX6",
                "name": "嵩县第三人民医院(东北门)",
                "type": "医疗保健服务;综合医院;综合医院",
                "location": {
                    "w": 33.792343,
                    "r": 112.12249400000002,
                    "lng": 112.122494,
                    "lat": 33.792343
                },
                "address": "车村镇",
                "tel": "",
                "distance": null
            }]
        }, {
            "id": 18374,
            "status": 1,
            "name": "嵩县二轻医院",
            "slug": "songxianerqingyiyuan",
            "type": 5,
            "poi": [{
                "id": "B017B02EKN",
                "name": "嵩县二轻医院",
                "type": "医疗保健服务;综合医院;综合医院",
                "location": {
                    "w": 34.13151,
                    "r": 112.085712,
                    "lng": 112.085712,
                    "lat": 34.13151
                },
                "address": "永安街",
                "tel": "",
                "distance": null
            }, {
                "id": "B017B030LF",
                "name": "二轻医院口腔科",
                "type": "医疗保健服务;诊所;诊所",
                "location": {
                    "w": 34.131727,
                    "r": 112.08544699999999,
                    "lng": 112.085447,
                    "lat": 34.131727
                },
                "address": "永安街12号附近",
                "tel": "",
                "distance": null
            }]
        }, {
            "id": 18372,
            "status": 1,
            "name": "嵩县新华医院",
            "slug": "songxianxinhuayiyuan",
            "type": 5,
            "poi": [{
                "id": "B017B0PNLS",
                "name": "嵩县新华医院",
                "type": "医疗保健服务;综合医院;综合医院",
                "location": {
                    "w": 34.136473,
                    "r": 112.09370999999999,
                    "lng": 112.09371,
                    "lat": 34.136473
                },
                "address": "翠三街",
                "tel": "",
                "distance": null
            }, {
                "id": "B017B0PRWC",
                "name": "12315消费者申诉举报中心",
                "type": "政府机构及社会团体;社会团体;消费者协会",
                "location": {
                    "w": 34.136194,
                    "r": 112.09360900000001,
                    "lng": 112.093609,
                    "lat": 34.136194
                },
                "address": "翠三街嵩县新华医院附近",
                "tel": "",
                "distance": null
            }, {
                "id": "B017B028L6",
                "name": "新华骨伤门诊部",
                "type": "医疗保健服务;专科医院;骨科医院",
                "location": {
                    "w": 34.136468,
                    "r": 112.093704,
                    "lng": 112.093704,
                    "lat": 34.136468
                },
                "address": "金城路",
                "tel": "",
                "distance": null
            }]
        }, {
            "id": 18370,
            "status": 1,
            "name": "洛阳中医药附属医院",
            "slug": "luoyangzhongyiyaofushuyiyuan",
            "type": 5,
            "poi": [{
                "id": "B017B02XPF",
                "name": "洛阳市中医药学校附属医院(建设路)",
                "type": "医疗保健服务;综合医院;综合医院",
                "location": {
                    "w": 34.133936,
                    "r": 112.08953300000002,
                    "lng": 112.089533,
                    "lat": 34.133936
                },
                "address": "建设路",
                "tel": "0379-66339595",
                "distance": null
            }, {
                "id": "B017B02ZDF",
                "name": "洛阳市中医药学校附属医院(交通巷)",
                "type": "医疗保健服务;综合医院;综合医院",
                "location": {
                    "w": 34.130741,
                    "r": 112.08732900000001,
                    "lng": 112.087329,
                    "lat": 34.130741
                },
                "address": "黄金巷",
                "tel": "",
                "distance": null
            }, {
                "id": "B0FFG0LEEY",
                "name": "洛阳市中医药学校附属医院-螺旋CT室",
                "type": "医疗保健服务;医疗保健服务场所;医疗保健服务场所",
                "location": {
                    "w": 34.133845,
                    "r": 112.0897,
                    "lng": 112.0897,
                    "lat": 34.133845
                },
                "address": "建设路62附近",
                "tel": "",
                "distance": null
            }, {
                "id": "B0FFG06OEL",
                "name": "中医药学校附属医院骨科门诊部",
                "type": "医疗保健服务;专科医院;骨科医院",
                "location": {
                    "w": 34.13365,
                    "r": 112.08949999999999,
                    "lng": 112.0895,
                    "lat": 34.13365
                },
                "address": "建设路62附近",
                "tel": "",
                "distance": null
            }]
        }, {
            "id": 18739,
            "status": 1,
            "name": "偃师中医院",
            "slug": "yanshizhongyiyuan",
            "type": 5,
            "poi": [{
                "id": "B017B01OBN",
                "name": "偃师市中医院",
                "type": "医疗保健服务;综合医院;综合医院",
                "location": {
                    "w": 34.724451,
                    "r": 112.78120200000001,
                    "lng": 112.781202,
                    "lat": 34.724451
                },
                "address": "商都路53号",
                "tel": "0379-67712852",
                "distance": null
            }, {
                "id": "B017B0PWJH",
                "name": "偃师中医院-急诊",
                "type": "医疗保健服务;医疗保健服务场所;医疗保健服务场所",
                "location": {
                    "w": 34.724354,
                    "r": 112.78094099999998,
                    "lng": 112.780941,
                    "lat": 34.724354
                },
                "address": "商都东路53号",
                "tel": "",
                "distance": null
            }, {
                "id": "B0FFFWLZTH",
                "name": "偃师市中医院(北门)",
                "type": "医疗保健服务;综合医院;综合医院",
                "location": {
                    "w": 34.724468,
                    "r": 112.78124400000002,
                    "lng": 112.781244,
                    "lat": 34.724468
                },
                "address": "商城路53号",
                "tel": "",
                "distance": null
            }, {
                "id": "B0FFF846BC",
                "name": "偃师中医院1号楼",
                "type": "地名地址信息;门牌信息;楼栋号",
                "location": {
                    "w": 34.724179,
                    "r": 112.78111799999999,
                    "lng": 112.781118,
                    "lat": 34.724179
                },
                "address": "",
                "tel": "",
                "distance": null
            }, {
                "id": "B0FFF7XXGD",
                "name": "偃师中医院2号楼",
                "type": "地名地址信息;门牌信息;楼栋号",
                "location": {
                    "w": 34.723836,
                    "r": 112.78089999999997,
                    "lng": 112.7809,
                    "lat": 34.723836
                },
                "address": "",
                "tel": "",
                "distance": null
            }, {
                "id": "B0FFF8KU8N",
                "name": "偃师中医院3号楼",
                "type": "地名地址信息;门牌信息;楼栋号",
                "location": {
                    "w": 34.723544,
                    "r": 112.78104000000002,
                    "lng": 112.78104,
                    "lat": 34.723544
                },
                "address": "",
                "tel": "",
                "distance": null
            }, {
                "id": "B0FFFRUQ25",
                "name": "偃师中医院-CT室",
                "type": "医疗保健服务;医疗保健服务场所;医疗保健服务场所",
                "location": {
                    "w": 34.724158,
                    "r": 112.78118,
                    "lng": 112.78118,
                    "lat": 34.724158
                },
                "address": "商都路53附近",
                "tel": "0379-67734163",
                "distance": null
            }, {
                "id": "B0FFFWM047",
                "name": "偃师市中医院口腔科",
                "type": "医疗保健服务;诊所;诊所",
                "location": {
                    "w": 34.722776,
                    "r": 112.780707,
                    "lng": 112.780707,
                    "lat": 34.722776
                },
                "address": "洛神路58附近",
                "tel": "",
                "distance": null
            }, {
                "id": "B017B0PKXG",
                "name": "中共偃师市中医院总支委员会",
                "type": "医疗保健服务;医疗保健服务场所;医疗保健服务场所",
                "location": {
                    "w": 34.724452,
                    "r": 112.781203,
                    "lng": 112.781203,
                    "lat": 34.724452
                },
                "address": "商城路53号",
                "tel": "",
                "distance": null
            }, {
                "id": "B0FFF2HKR4",
                "name": "偃师市人民医院高压氧治疗中心",
                "type": "医疗保健服务;医疗保健服务场所;医疗保健服务场所",
                "location": {
                    "w": 34.722064,
                    "r": 112.79818999999998,
                    "lng": 112.79819,
                    "lat": 34.722064
                },
                "address": "商都东路118附近",
                "tel": "",
                "distance": null
            }]
        }, {
            "id": 18382,
            "status": 1,
            "name": "汝阳县人民医院",
            "slug": "ruyangxianrenminyiyuan",
            "type": 5,
            "poi": [{
                "id": "B017B00CFA",
                "name": "汝阳县人民医院",
                "type": "医疗保健服务;综合医院;综合医院",
                "location": {
                    "w": 34.153913,
                    "r": 112.46885299999997,
                    "lng": 112.468853,
                    "lat": 34.153913
                },
                "address": "文化路40号",
                "tel": "0379-68211516",
                "distance": null
            }, {
                "id": "B017B0PX25",
                "name": "汝阳县人民医院急诊",
                "type": "医疗保健服务;医疗保健服务场所;医疗保健服务场所",
                "location": {
                    "w": 34.153936,
                    "r": 112.46823899999998,
                    "lng": 112.468239,
                    "lat": 34.153936
                },
                "address": "文化路42附近",
                "tel": "",
                "distance": null
            }, {
                "id": "B017B0PYNK",
                "name": "汝阳县人民医院-门诊楼",
                "type": "医疗保健服务;医疗保健服务场所;医疗保健服务场所",
                "location": {
                    "w": 34.153936,
                    "r": 112.46823899999998,
                    "lng": 112.468239,
                    "lat": 34.153936
                },
                "address": "文化路42附近",
                "tel": "",
                "distance": null
            }, {
                "id": "B0FFG30U9A",
                "name": "汝阳县人民医院内科楼",
                "type": "医疗保健服务;医疗保健服务场所;医疗保健服务场所",
                "location": {
                    "w": 34.15474,
                    "r": 112.4685,
                    "lng": 112.4685,
                    "lat": 34.15474
                },
                "address": "朝阳路附近",
                "tel": "",
                "distance": null
            }, {
                "id": "B0FFF7C4SE",
                "name": "汝阳县人民医院1号楼",
                "type": "地名地址信息;门牌信息;楼栋号",
                "location": {
                    "w": 34.153321,
                    "r": 112.46878700000002,
                    "lng": 112.468787,
                    "lat": 34.153321
                },
                "address": "",
                "tel": "",
                "distance": null
            }, {
                "id": "B0FFF7C4SF",
                "name": "汝阳县人民医院2号楼",
                "type": "地名地址信息;门牌信息;楼栋号",
                "location": {
                    "w": 34.153383,
                    "r": 112.46902599999999,
                    "lng": 112.469026,
                    "lat": 34.153383
                },
                "address": "",
                "tel": "",
                "distance": null
            }, {
                "id": "B0FFF7C4S6",
                "name": "汝阳县人民医院3号楼",
                "type": "地名地址信息;门牌信息;楼栋号",
                "location": {
                    "w": 34.153486,
                    "r": 112.469224,
                    "lng": 112.469224,
                    "lat": 34.153486
                },
                "address": "",
                "tel": "",
                "distance": null
            }, {
                "id": "B0FFF7FUQJ",
                "name": "汝阳县人民医院5号楼",
                "type": "地名地址信息;门牌信息;楼栋号",
                "location": {
                    "w": 34.154793,
                    "r": 112.468549,
                    "lng": 112.468549,
                    "lat": 34.154793
                },
                "address": "",
                "tel": "",
                "distance": null
            }, {
                "id": "B0FFF7FUQT",
                "name": "汝阳县人民医院4号楼",
                "type": "地名地址信息;门牌信息;楼栋号",
                "location": {
                    "w": 34.154535,
                    "r": 112.46915999999999,
                    "lng": 112.46916,
                    "lat": 34.154535
                },
                "address": "",
                "tel": "",
                "distance": null
            }, {
                "id": "B0FFF7FUQQ",
                "name": "汝阳县人民医院7号楼",
                "type": "地名地址信息;门牌信息;楼栋号",
                "location": {
                    "w": 34.155048,
                    "r": 112.46932600000002,
                    "lng": 112.469326,
                    "lat": 34.155048
                },
                "address": "",
                "tel": "",
                "distance": null
            }]
        }, {
            "id": 18748,
            "status": 1,
            "name": "伊川第二人民医院",
            "slug": "yichuandierrenminyiyuan",
            "type": 5,
            "poi": [{
                "id": "B017B01PGH",
                "name": "伊川县第二人民医院",
                "type": "医疗保健服务;综合医院;综合医院",
                "location": {
                    "w": 34.423065,
                    "r": 112.424981,
                    "lng": 112.424981,
                    "lat": 34.423065
                },
                "address": "健康街59",
                "tel": "0379-68333995;0379-68367067",
                "distance": null
            }, {
                "id": "B0FFFEVAXI",
                "name": "伊川县第二人民医院(东门)",
                "type": "医疗保健服务;综合医院;综合医院",
                "location": {
                    "w": 34.423022,
                    "r": 112.425164,
                    "lng": 112.425164,
                    "lat": 34.423022
                },
                "address": "健康街59号",
                "tel": "",
                "distance": null
            }, {
                "id": "B0FFFEVAX6",
                "name": "伊川县第二人民医院(西门)",
                "type": "医疗保健服务;综合医院;综合医院",
                "location": {
                    "w": 34.423091,
                    "r": 112.42475300000001,
                    "lng": 112.424753,
                    "lat": 34.423091
                },
                "address": "健康街59附近",
                "tel": "",
                "distance": null
            }, {
                "id": "B017B01OS8",
                "name": "伊川县第二人民医院120急救站",
                "type": "医疗保健服务;急救中心;急救中心",
                "location": {
                    "w": 34.4229,
                    "r": 112.42502000000002,
                    "lng": 112.42502,
                    "lat": 34.4229
                },
                "address": "城关镇健康街29号",
                "tel": "0379-68367067;0379-68333995",
                "distance": null
            }, {
                "id": "B0FFF61MM9",
                "name": "巨星国际(第二分店)",
                "type": "生活服务;美容美发店;美容美发店",
                "location": {
                    "w": 34.408866,
                    "r": 112.41805899999997,
                    "lng": 112.418059,
                    "lat": 34.408866
                },
                "address": "酒厂南路眼科医院北100米",
                "tel": "0379-60858666",
                "distance": null
            }]
        }, {
            "id": 18381,
            "status": 1,
            "name": "嵩县中医院",
            "slug": "songxianzhongyiyuan",
            "type": 5,
            "poi": [{
                "id": "B017B0303B",
                "name": "嵩县中医院",
                "type": "医疗保健服务;综合医院;综合医院",
                "location": {
                    "w": 34.13996,
                    "r": 112.099245,
                    "lng": 112.099245,
                    "lat": 34.13996
                },
                "address": "上仓村",
                "tel": "0379-66333333",
                "distance": null
            }, {
                "id": "B0FFG4GDXN",
                "name": "嵩县中医院(东南门)",
                "type": "医疗保健服务;综合医院;综合医院",
                "location": {
                    "w": 34.139929,
                    "r": 112.09932200000003,
                    "lng": 112.099322,
                    "lat": 34.139929
                },
                "address": "上仓村",
                "tel": "",
                "distance": null
            }, {
                "id": "B017B0PYLH",
                "name": "嵩县中医院急救",
                "type": "医疗保健服务;急救中心;急救中心",
                "location": {
                    "w": 34.139854,
                    "r": 112.09875999999997,
                    "lng": 112.09876,
                    "lat": 34.139854
                },
                "address": "建设路",
                "tel": "0379-66333333",
                "distance": null
            }, {
                "id": "B0FFF2TDB4",
                "name": "嵩县中医院-输液大厅",
                "type": "医疗保健服务;综合医院;综合医院",
                "location": {
                    "w": 34.139587,
                    "r": 112.09824000000003,
                    "lng": 112.09824,
                    "lat": 34.139587
                },
                "address": "洛栾线附近",
                "tel": "",
                "distance": null
            }, {
                "id": "B0FFF0AJ3G",
                "name": "嵩县中医院-健康咨询体检大厅",
                "type": "医疗保健服务;医疗保健服务场所;医疗保健服务场所",
                "location": {
                    "w": 34.139446,
                    "r": 112.09840400000002,
                    "lng": 112.098404,
                    "lat": 34.139446
                },
                "address": "白云大道附近",
                "tel": "",
                "distance": null
            }, {
                "id": "B0FFFX13WD",
                "name": "百草堂大药房(嵩县中医院东北)",
                "type": "医疗保健服务;医药保健销售店;药房",
                "location": {
                    "w": 34.140209,
                    "r": 112.09944999999999,
                    "lng": 112.09945,
                    "lat": 34.140209
                },
                "address": "322省道(嵩县中医院东北)",
                "tel": "0379-66323388",
                "distance": null
            }, {
                "id": "B017B02ZWY",
                "name": "文源书店(嵩县中医院北)",
                "type": "购物服务;专卖店;书店",
                "location": {
                    "w": 34.141216,
                    "r": 112.09976,
                    "lng": 112.09976,
                    "lat": 34.141216
                },
                "address": "322省道(嵩县中医院北)",
                "tel": "",
                "distance": null
            }, {
                "id": "B017B0303A",
                "name": "百草厅药房(嵩县中医院东北)",
                "type": "医疗保健服务;医药保健销售店;药房",
                "location": {
                    "w": 34.140207,
                    "r": 112.09950400000002,
                    "lng": 112.099504,
                    "lat": 34.140207
                },
                "address": "白云大道附近",
                "tel": "0379-66323388",
                "distance": null
            }, {
                "id": "B017B0PMF0",
                "name": "中共嵩县城关镇南街村支部委员会",
                "type": "政府机构及社会团体;政府机关;乡镇以下级政府及事业单位",
                "location": {
                    "w": 34.147333,
                    "r": 112.09522900000002,
                    "lng": 112.095229,
                    "lat": 34.147333
                },
                "address": "金苹果幼儿园(嵩县中医院肿瘤部东北)附近",
                "tel": "",
                "distance": null
            }, {
                "id": "B017B02YXE",
                "name": "嵩县城关镇卫生院",
                "type": "医疗保健服务;综合医院;卫生院",
                "location": {
                    "w": 34.145901,
                    "r": 112.09518400000002,
                    "lng": 112.095184,
                    "lat": 34.145901
                },
                "address": "金苹果幼儿园(嵩县中医院肿瘤部东北)附近",
                "tel": "",
                "distance": null
            }]
        }, {
            "id": 18751,
            "status": 1,
            "name": "周天百货杜园店",
            "slug": "zhoutianbaihuoduyuandian",
            "type": 6,
            "poi": [{
                "id": "B0FFFEVJBS",
                "name": "周天百货(杜园店)",
                "type": "购物服务;超级市场;超市",
                "location": {
                    "w": 34.416009,
                    "r": 112.41985,
                    "lng": 112.41985,
                    "lat": 34.416009
                },
                "address": "文化南路243号",
                "tel": "",
                "distance": null
            }, {
                "id": "B0FFFEVEZA",
                "name": "魔锅坊麻辣香锅(伊川总店)",
                "type": "餐饮服务;中餐厅;火锅店",
                "location": {
                    "w": 34.41604,
                    "r": 112.42030799999998,
                    "lng": 112.420308,
                    "lat": 34.41604
                },
                "address": "文化南路餐饮街21号(周天百货杜园店对面)",
                "tel": "18137735560",
                "distance": null
            }]
        }, {
            "id": 18379,
            "status": 1,
            "name": "远鸿购物广场",
            "slug": "yuanhonggouwuguangchang",
            "type": 6,
            "poi": [{
                "id": "B0FFF06RUF",
                "name": "远鸿购物广场(南门)",
                "type": "购物服务;购物相关场所;购物相关场所",
                "location": {
                    "w": 34.130919,
                    "r": 112.09081000000003,
                    "lng": 112.09081,
                    "lat": 34.130919
                },
                "address": "人民路36附近",
                "tel": "",
                "distance": null
            }, {
                "id": "B0FFFCM71A",
                "name": "中国电信(白云大道营业厅)",
                "type": "生活服务;电讯营业厅;中国电信营业厅",
                "location": {
                    "w": 34.131466,
                    "r": 112.09070700000001,
                    "lng": 112.090707,
                    "lat": 34.131466
                },
                "address": "白云大道大远鸿购物广场后门",
                "tel": "",
                "distance": null
            }, {
                "id": "B017B021MD",
                "name": "金鑫珠宝",
                "type": "购物服务;专卖店;珠宝首饰工艺品",
                "location": {
                    "w": 34.131628,
                    "r": 112.09075899999999,
                    "lng": 112.090759,
                    "lat": 34.131628
                },
                "address": "建设路9-1号远鸿购物广场(嵩县黄金医院东)1层",
                "tel": "",
                "distance": null
            }, {
                "id": "B017B02ZMN",
                "name": "PLAYBOY(建设路)",
                "type": "购物服务;服装鞋帽皮具店;品牌服装店",
                "location": {
                    "w": 34.133076,
                    "r": 112.08782100000002,
                    "lng": 112.087821,
                    "lat": 34.133076
                },
                "address": "建设路9-1号远鸿购物广场(嵩县黄金医院东)3层",
                "tel": "",
                "distance": null
            }, {
                "id": "B017B028SK",
                "name": "迎宾新宇宾馆",
                "type": "住宿服务;宾馆酒店;宾馆酒店",
                "location": {
                    "w": 34.131795,
                    "r": 112.09112900000002,
                    "lng": 112.091129,
                    "lat": 34.131795
                },
                "address": "白云大道金城路远鸿购物广场东20米",
                "tel": "18739050965",
                "distance": null
            }, {
                "id": "B0FFG1TLA4",
                "name": "波司登",
                "type": "购物服务;服装鞋帽皮具店;品牌服装店",
                "location": {
                    "w": 34.131628,
                    "r": 112.09075899999999,
                    "lng": 112.090759,
                    "lat": 34.131628
                },
                "address": "建设路9-1号远鸿购物广场(嵩县黄金医院东)2层",
                "tel": "",
                "distance": null
            }, {
                "id": "B0FFG1TZR2",
                "name": "六婆自助回转小火锅",
                "type": "餐饮服务;中餐厅;中餐厅",
                "location": {
                    "w": 34.131628,
                    "r": 112.09075899999999,
                    "lng": 112.090759,
                    "lat": 34.131628
                },
                "address": "建设路9-1号远鸿购物广场(嵩县黄金医院东)4层",
                "tel": "",
                "distance": null
            }, {
                "id": "B017B02XOG",
                "name": "福建沙县小吃(永安街)",
                "type": "餐饮服务;中餐厅;中餐厅",
                "location": {
                    "w": 34.131383,
                    "r": 112.08655499999998,
                    "lng": 112.086555,
                    "lat": 34.131383
                },
                "address": "建设路9-1号远鸿购物广场(嵩县黄金医院东)4层",
                "tel": "18790795567",
                "distance": null
            }, {
                "id": "B0FFG28XPY",
                "name": "盛宇家纺",
                "type": "购物服务;家居建材市场;布艺市场",
                "location": {
                    "w": 34.131628,
                    "r": 112.09075899999999,
                    "lng": 112.090759,
                    "lat": 34.131628
                },
                "address": "建设路9-1号远鸿购物广场(嵩县黄金医院东)2层",
                "tel": "",
                "distance": null
            }, {
                "id": "B0FFG2BLZ1",
                "name": "李十二麻辣烫米皮",
                "type": "餐饮服务;餐饮相关场所;餐饮相关",
                "location": {
                    "w": 34.131628,
                    "r": 112.09075899999999,
                    "lng": 112.090759,
                    "lat": 34.131628
                },
                "address": "建设路9-1号远鸿购物广场(嵩县黄金医院东)4层",
                "tel": "",
                "distance": null
            }]
        }, {
            "id": 18744,
            "status": 1,
            "name": "伊川人民医院",
            "slug": "yichuanrenminyiyuan",
            "type": 5,
            "poi": [{
                "id": "B017B00BE0",
                "name": "伊川人民医院",
                "type": "医疗保健服务;综合医院;综合医院",
                "location": {
                    "w": 34.419504,
                    "r": 112.42685499999999,
                    "lng": 112.426855,
                    "lat": 34.419504
                },
                "address": "商城南路21号",
                "tel": "0379-68334120;0379-68332466",
                "distance": null
            }, {
                "id": "B0FFFEWF01",
                "name": "伊川人民医院(西门)",
                "type": "医疗保健服务;综合医院;综合医院",
                "location": {
                    "w": 34.419425,
                    "r": 112.426131,
                    "lng": 112.426131,
                    "lat": 34.419425
                },
                "address": "酒城南路52附近",
                "tel": "",
                "distance": null
            }, {
                "id": "B0FFG0IMF1",
                "name": "伊川县人民医院-住院部",
                "type": "医疗保健服务;综合医院;综合医院",
                "location": {
                    "w": 34.419468,
                    "r": 112.42703,
                    "lng": 112.42703,
                    "lat": 34.419468
                },
                "address": "酒城南路附近",
                "tel": "",
                "distance": null
            }, {
                "id": "B017B01PGH",
                "name": "伊川县第二人民医院",
                "type": "医疗保健服务;综合医院;综合医院",
                "location": {
                    "w": 34.423065,
                    "r": 112.424981,
                    "lng": 112.424981,
                    "lat": 34.423065
                },
                "address": "健康街59",
                "tel": "0379-68333995;0379-68367067",
                "distance": null
            }, {
                "id": "B0FFG0EXS8",
                "name": "伊川人民医院-输液中心",
                "type": "医疗保健服务;综合医院;综合医院",
                "location": {
                    "w": 34.42006,
                    "r": 112.42619000000002,
                    "lng": 112.42619,
                    "lat": 34.42006
                },
                "address": "酒城南路10附近",
                "tel": "",
                "distance": null
            }, {
                "id": "B017B02V8I",
                "name": "伊川第三人民医院",
                "type": "医疗保健服务;综合医院;综合医院",
                "location": {
                    "w": 34.423572,
                    "r": 112.473704,
                    "lng": 112.473704,
                    "lat": 34.423572
                },
                "address": "洛临路南段44号",
                "tel": "",
                "distance": null
            }, {
                "id": "B017B01OA5",
                "name": "伊川县人民医院按摩治疗中心",
                "type": "医疗保健服务;医疗保健服务场所;医疗保健服务场所",
                "location": {
                    "w": 34.423457,
                    "r": 112.47366299999999,
                    "lng": 112.473663,
                    "lat": 34.423457
                },
                "address": "洛临路附近",
                "tel": "",
                "distance": null
            }, {
                "id": "B0FFG0M9JH",
                "name": "伊川人民医院血液净化中心",
                "type": "医疗保健服务;综合医院;综合医院",
                "location": {
                    "w": 34.419666,
                    "r": 112.42608000000001,
                    "lng": 112.42608,
                    "lat": 34.419666
                },
                "address": "酒城南路80号附近",
                "tel": "",
                "distance": null
            }, {
                "id": "B017B0PM38",
                "name": "伊川县人民医院社区电力医疗服务中心",
                "type": "医疗保健服务;综合医院;卫生院",
                "location": {
                    "w": 34.417165,
                    "r": 112.504435,
                    "lng": 112.504435,
                    "lat": 34.417165
                },
                "address": "豫港大道东段680号",
                "tel": "",
                "distance": null
            }, {
                "id": "B0FFFEVAXI",
                "name": "伊川县第二人民医院(东门)",
                "type": "医疗保健服务;综合医院;综合医院",
                "location": {
                    "w": 34.423022,
                    "r": 112.425164,
                    "lng": 112.425164,
                    "lat": 34.423022
                },
                "address": "健康街59号",
                "tel": "",
                "distance": null
            }]
        }, {
            "id": 18377,
            "status": 1,
            "name": "嵩县汽车站",
            "slug": "songxianqichezhan",
            "type": 8,
            "poi": [{
                "id": "B017B02C7N",
                "name": "嵩县汽车站",
                "type": "交通设施服务;长途汽车站;长途汽车站",
                "location": {
                    "w": 34.129517,
                    "r": 112.08634999999998,
                    "lng": 112.08635,
                    "lat": 34.129517
                },
                "address": "金城西路159号",
                "tel": "0379-66331170;0379-66415888",
                "distance": null
            }, {
                "id": "B0FFG4JF9L",
                "name": "嵩县汽车站(东南门)",
                "type": "通行设施;建筑物门;建筑物门",
                "location": {
                    "w": 34.129272,
                    "r": 112.08639,
                    "lng": 112.08639,
                    "lat": 34.129272
                },
                "address": "金城西路159号",
                "tel": "",
                "distance": null
            }, {
                "id": "B017B0PPHX",
                "name": "嵩县汽车站售票处",
                "type": "生活服务;售票处;长途汽车票代售点",
                "location": {
                    "w": 34.129305,
                    "r": 112.086479,
                    "lng": 112.086479,
                    "lat": 34.129305
                },
                "address": "金城路附近",
                "tel": "",
                "distance": null
            }, {
                "id": "B017B0PSG5",
                "name": "嵩县西关机动车辆维修站",
                "type": "汽车维修;汽车维修;汽车维修",
                "location": {
                    "w": 34.130772,
                    "r": 112.08736899999997,
                    "lng": 112.087369,
                    "lat": 34.130772
                },
                "address": "交通巷附近",
                "tel": "0379-66321222",
                "distance": null
            }, {
                "id": "B017B026R1",
                "name": "田湖镇嵩北客运站",
                "type": "交通设施服务;长途汽车站;长途汽车站",
                "location": {
                    "w": 34.2296,
                    "r": 112.206569,
                    "lng": 112.206569,
                    "lat": 34.2296
                },
                "address": "洛栾线附近",
                "tel": "",
                "distance": null
            }]
        }, {
            "id": 18376,
            "status": 1,
            "name": "嵩县妇幼保健院",
            "slug": "songxianfuyoubaojianyuan",
            "type": 5,
            "poi": [{
                "id": "B017B02WRN",
                "name": "嵩县妇幼保健院",
                "type": "医疗保健服务;专科医院;妇科医院",
                "location": {
                    "w": 34.12836,
                    "r": 112.087399,
                    "lng": 112.087399,
                    "lat": 34.12836
                },
                "address": "白云大道16号",
                "tel": "0379-66300203",
                "distance": null
            }, {
                "id": "B0FFG4FE48",
                "name": "嵩县妇幼保健院(西北门)",
                "type": "医疗保健服务;专科医院;专科医院",
                "location": {
                    "w": 34.128417,
                    "r": 112.08733999999998,
                    "lng": 112.08734,
                    "lat": 34.128417
                },
                "address": "白云大道16号",
                "tel": "",
                "distance": null
            }, {
                "id": "B017B02ELQ",
                "name": "嵩县妇幼保健院第二门诊部",
                "type": "医疗保健服务;专科医院;专科医院",
                "location": {
                    "w": 34.130136,
                    "r": 112.08415300000001,
                    "lng": 112.084153,
                    "lat": 34.130136
                },
                "address": "石磊街",
                "tel": "",
                "distance": null
            }, {
                "id": "B017B02WRM",
                "name": "孕产妇急救中心",
                "type": "医疗保健服务;急救中心;急救中心",
                "location": {
                    "w": 34.12836,
                    "r": 112.087402,
                    "lng": 112.087402,
                    "lat": 34.12836
                },
                "address": "白云大道16号",
                "tel": "",
                "distance": null
            }]
        }, {
            "id": 18746,
            "status": 1,
            "name": "伊川妇幼保健院",
            "slug": "yichuanfuyoubaojianyuan",
            "type": 5,
            "poi": [{
                "id": "B017B02C7X",
                "name": "伊川县妇幼保健院",
                "type": "医疗保健服务;专科医院;专科医院",
                "location": {
                    "w": 34.4188,
                    "r": 112.425186,
                    "lng": 112.425186,
                    "lat": 34.4188
                },
                "address": "酒城南路",
                "tel": "0379-68356978",
                "distance": null
            }, {
                "id": "B0FFFX9ELY",
                "name": "伊川县妇幼保健院(东门)",
                "type": "医疗保健服务;专科医院;专科医院",
                "location": {
                    "w": 34.418731,
                    "r": 112.42536999999999,
                    "lng": 112.42537,
                    "lat": 34.418731
                },
                "address": "酒城南路131附近",
                "tel": "",
                "distance": null
            }, {
                "id": "B017B030PY",
                "name": "宝朗孕婴童用品(旗舰店)",
                "type": "购物服务;专卖店;儿童用品店",
                "location": {
                    "w": 34.418609,
                    "r": 112.42578600000002,
                    "lng": 112.425786,
                    "lat": 34.418609
                },
                "address": "酒城南路妇幼保健院对面",
                "tel": "",
                "distance": null
            }]
        }, {
            "id": 18353,
            "status": 1,
            "name": "孟津中医院",
            "slug": "mengjinzhongyiyuan",
            "type": 5,
            "poi": [{
                "id": "B017B0045C",
                "name": "孟津中医院",
                "type": "医疗保健服务;综合医院;综合医院",
                "location": {
                    "w": 34.821692,
                    "r": 112.44785200000001,
                    "lng": 112.447852,
                    "lat": 34.821692
                },
                "address": "八一路",
                "tel": "0379-67912226",
                "distance": null
            }, {
                "id": "B0FFF2XFVQ",
                "name": "孟津中医院-住院部",
                "type": "医疗保健服务;综合医院;综合医院",
                "location": {
                    "w": 34.82126,
                    "r": 112.44755600000002,
                    "lng": 112.447556,
                    "lat": 34.82126
                },
                "address": "平乐路162附近",
                "tel": "",
                "distance": null
            }, {
                "id": "B0FFF2OCVX",
                "name": "孟津中医院-急诊科",
                "type": "医疗保健服务;急救中心;急救中心",
                "location": {
                    "w": 34.82158,
                    "r": 112.447586,
                    "lng": 112.447586,
                    "lat": 34.82158
                },
                "address": "平乐路31附近",
                "tel": "0379-67911111",
                "distance": null
            }, {
                "id": "B0FFF2S8FO",
                "name": "孟津中医院-儿科",
                "type": "医疗保健服务;综合医院;综合医院",
                "location": {
                    "w": 34.821583,
                    "r": 112.44743,
                    "lng": 112.44743,
                    "lat": 34.821583
                },
                "address": "平乐路156附近",
                "tel": "",
                "distance": null
            }, {
                "id": "B0FFF2DIIN",
                "name": "孟津中医院-骨伤科",
                "type": "医疗保健服务;专科医院;骨科医院",
                "location": {
                    "w": 34.821583,
                    "r": 112.44743,
                    "lng": 112.44743,
                    "lat": 34.821583
                },
                "address": "城关医院",
                "tel": "",
                "distance": null
            }, {
                "id": "B0FFF2E86F",
                "name": "孟津中医院-肿瘤科",
                "type": "医疗保健服务;专科医院;专科医院",
                "location": {
                    "w": 34.821583,
                    "r": 112.44743,
                    "lng": 112.44743,
                    "lat": 34.821583
                },
                "address": "平乐路156附近",
                "tel": "",
                "distance": null
            }, {
                "id": "B0FFFYY1BO",
                "name": "孟津县中医院社区门诊部",
                "type": "医疗保健服务;医疗保健服务场所;医疗保健服务场所",
                "location": {
                    "w": 34.827313,
                    "r": 112.43568399999998,
                    "lng": 112.435684,
                    "lat": 34.827313
                },
                "address": "桂花路",
                "tel": "",
                "distance": null
            }, {
                "id": "B017B0PMTA",
                "name": "孟津县中医院社区门诊部",
                "type": "医疗保健服务;诊所;诊所",
                "location": {
                    "w": 34.8188,
                    "r": 112.44299999999998,
                    "lng": 112.443,
                    "lat": 34.8188
                },
                "address": "会盟大道230号附近",
                "tel": "",
                "distance": null
            }, {
                "id": "B0FFF31NST",
                "name": "孟津中医院-住院部北楼",
                "type": "医疗保健服务;综合医院;综合医院",
                "location": {
                    "w": 34.821583,
                    "r": 112.44743,
                    "lng": 112.44743,
                    "lat": 34.821583
                },
                "address": "平乐路156附近",
                "tel": "",
                "distance": null
            }, {
                "id": "B017B0PLIG",
                "name": "孟津县中医院社区卫生服务中心",
                "type": "医疗保健服务;综合医院;卫生院",
                "location": {
                    "w": 34.8188,
                    "r": 112.44299999999998,
                    "lng": 112.443,
                    "lat": 34.8188
                },
                "address": "会盟大道230号附近",
                "tel": "",
                "distance": null
            }]
        }, {
            "id": 18752,
            "status": 1,
            "name": "伊川县中医院",
            "slug": "yichuanxianzhongyiyuan",
            "type": 5,
            "poi": [{
                "id": "B0FFG7I4SY",
                "name": "伊川县中医院(新鹏北路)",
                "type": "医疗保健服务;综合医院;综合医院",
                "location": {
                    "w": 34.425679,
                    "r": 112.44177400000001,
                    "lng": 112.441774,
                    "lat": 34.425679
                },
                "address": "豫港大道",
                "tel": "0379-69366120",
                "distance": null
            }, {
                "id": "B0FFG7I4VC",
                "name": "伊川县中医院(郭木线)",
                "type": "医疗保健服务;综合医院;综合医院",
                "location": {
                    "w": 34.441492,
                    "r": 112.45189600000003,
                    "lng": 112.451896,
                    "lat": 34.441492
                },
                "address": "243省道附近",
                "tel": "",
                "distance": null
            }, {
                "id": "B0FFFZCS5Z",
                "name": "伊川县中医院(北门)",
                "type": "医疗保健服务;综合医院;综合医院",
                "location": {
                    "w": 34.425969,
                    "r": 112.44174800000002,
                    "lng": 112.441748,
                    "lat": 34.425969
                },
                "address": "豫港大道东段62附近",
                "tel": "",
                "distance": null
            }, {
                "id": "B017B0PP9T",
                "name": "伊川县中医院口腔科",
                "type": "医疗保健服务;诊所;诊所",
                "location": {
                    "w": 34.426027,
                    "r": 112.44142099999999,
                    "lng": 112.441421,
                    "lat": 34.426027
                },
                "address": "豫港大道西段附近",
                "tel": "",
                "distance": null
            }, {
                "id": "B017B0PWKX",
                "name": "伊川县中医院-放射CT科",
                "type": "医疗保健服务;综合医院;综合医院",
                "location": {
                    "w": 34.425728,
                    "r": 112.44192499999997,
                    "lng": 112.441925,
                    "lat": 34.425728
                },
                "address": "豫港大道东段64附近",
                "tel": "0379-69378119;0379-69366409",
                "distance": null
            }, {
                "id": "B017B02U1H",
                "name": "伊川县五环面粉挂面厂",
                "type": "公司企业;工厂;工厂",
                "location": {
                    "w": 34.424736,
                    "r": 112.441735,
                    "lng": 112.441735,
                    "lat": 34.424736
                },
                "address": "豫港大道西段伊川县中医院附近",
                "tel": "",
                "distance": null
            }, {
                "id": "B017B0PMUV",
                "name": "伊川县万瑞源实业有限公司",
                "type": "公司企业;公司;公司",
                "location": {
                    "w": 34.424599,
                    "r": 112.44188099999997,
                    "lng": 112.441881,
                    "lat": 34.424599
                },
                "address": "豫港大道西段伊川县中医院附近",
                "tel": "",
                "distance": null
            }, {
                "id": "B017B0POM0",
                "name": "伊川县烟草专卖局内部监管稽查队",
                "type": "政府机构及社会团体;政府机关;区县级政府及事业单位",
                "location": {
                    "w": 34.425601,
                    "r": 112.44216900000004,
                    "lng": 112.442169,
                    "lat": 34.425601
                },
                "address": "豫港大道西段伊川县中医院附近",
                "tel": "",
                "distance": null
            }, {
                "id": "B017B0PLY0",
                "name": "伊川县烟草专卖局打假打私稽查队",
                "type": "政府机构及社会团体;政府机关;区县级政府及事业单位",
                "location": {
                    "w": 34.425601,
                    "r": 112.44216900000004,
                    "lng": 112.442169,
                    "lat": 34.425601
                },
                "address": "豫港大道西段伊川县中医院附近",
                "tel": "",
                "distance": null
            }, {
                "id": "B017B0PPPJ",
                "name": "伊川县烟草专卖局第一市场监管稽查队",
                "type": "政府机构及社会团体;政府机关;区县级政府及事业单位",
                "location": {
                    "w": 34.425601,
                    "r": 112.44216900000004,
                    "lng": 112.442169,
                    "lat": 34.425601
                },
                "address": "豫港大道西段伊川县中医院附近",
                "tel": "",
                "distance": null
            }]
        }, {
            "id": 18356,
            "status": 1,
            "name": "孟津县公疗医院",
            "slug": "mengjinxiangongliaoyiyuan",
            "type": 5,
            "poi": [{
                "id": "B017B01G63",
                "name": "孟津县公疗医院",
                "type": "医疗保健服务;综合医院;综合医院",
                "location": {
                    "w": 34.817431,
                    "r": 112.45750299999997,
                    "lng": 112.457503,
                    "lat": 34.817431
                },
                "address": "会盟路",
                "tel": "",
                "distance": null
            }, {
                "id": "B017B0PKQ9",
                "name": "孟津县公疗医院急救站",
                "type": "医疗保健服务;急救中心;急救中心",
                "location": {
                    "w": 34.74557,
                    "r": 112.55058300000002,
                    "lng": 112.550583,
                    "lat": 34.74557
                },
                "address": "白常路附近",
                "tel": "0379-67913120;0379-67919993",
                "distance": null
            }, {
                "id": "B0FFFFTPW8",
                "name": "东北大锅台(孟津店)",
                "type": "餐饮服务;中餐厅;火锅店",
                "location": {
                    "w": 34.81669,
                    "r": 112.45634999999999,
                    "lng": 112.45635,
                    "lat": 34.81669
                },
                "address": "会盟路与西霞路交叉口(公疗医院斜对面)",
                "tel": "0379-67811777",
                "distance": null
            }, {
                "id": "B0FFFCMA1Q",
                "name": "松泰保险代理有限公司(孟津营业部)",
                "type": "金融保险服务;保险公司;保险公司",
                "location": {
                    "w": 34.818501,
                    "r": 112.45637899999997,
                    "lng": 112.456379,
                    "lat": 34.818501
                },
                "address": "交警队斜对面公疗医院西隔壁西霞路中段",
                "tel": "13653898993;13623899030",
                "distance": null
            }, {
                "id": "B017B031FI",
                "name": "中国电信(振兴路营业厅)",
                "type": "生活服务;电讯营业厅;中国电信营业厅",
                "location": {
                    "w": 34.819935,
                    "r": 112.45184899999998,
                    "lng": 112.451849,
                    "lat": 34.819935
                },
                "address": "公疗医院十字路口",
                "tel": "",
                "distance": null
            }, {
                "id": "B0FFG7KJHH",
                "name": "筋骨堂",
                "type": "生活服务;洗浴推拿场所;洗浴推拿场所",
                "location": {
                    "w": 34.81685,
                    "r": 112.45492999999999,
                    "lng": 112.45493,
                    "lat": 34.81685
                },
                "address": "公疗医院西200米(南苑花园对面)",
                "tel": "15037965899",
                "distance": null
            }]
        }, {
            "id": 18756,
            "status": 1,
            "name": "博大医院",
            "slug": "bodayiyuan",
            "type": 5,
            "poi": [{
                "id": "B0FFF2PJ7W",
                "name": "博大医院",
                "type": "医疗保健服务;综合医院;综合医院",
                "location": {
                    "w": 34.410927,
                    "r": 112.42584599999998,
                    "lng": 112.425846,
                    "lat": 34.410927
                },
                "address": "杜康大道南花坛南200米",
                "tel": "",
                "distance": null
            }, {
                "id": "B0FFG4GS91",
                "name": "博大医院(东南门)",
                "type": "医疗保健服务;综合医院;综合医院",
                "location": {
                    "w": 34.410616,
                    "r": 112.426466,
                    "lng": 112.426466,
                    "lat": 34.410616
                },
                "address": "杜康大道附近",
                "tel": "",
                "distance": null
            }, {
                "id": "B0FFF063LI",
                "name": "宝岛眼镜(博大医院南)",
                "type": "购物服务;专卖店;眼镜店",
                "location": {
                    "w": 34.41045,
                    "r": 112.42636299999998,
                    "lng": 112.426363,
                    "lat": 34.41045
                },
                "address": "322省道附近",
                "tel": "",
                "distance": null
            }]
        }, {
            "id": 18359,
            "status": 1,
            "name": "王铎书法馆",
            "slug": "wangduoshufaguan",
            "type": 3,
            "poi": [{
                "id": "B017B027JU",
                "name": "王铎书法馆",
                "type": "科教文化服务;科教文化场所;科教文化场所",
                "location": {
                    "w": 34.830805,
                    "r": 112.44788199999999,
                    "lng": 112.447882,
                    "lat": 34.830805
                },
                "address": "黄河大道332号",
                "tel": "",
                "distance": null
            }]
        }, {
            "id": 18361,
            "status": 1,
            "name": "孟津县人民医院",
            "slug": "mengjinxianrenminyiyuan",
            "type": 5,
            "poi": [{
                "id": "B017B00D17",
                "name": "孟津县人民医院",
                "type": "医疗保健服务;综合医院;综合医院",
                "location": {
                    "w": 34.829842,
                    "r": 112.44342799999998,
                    "lng": 112.443428,
                    "lat": 34.829842
                },
                "address": "小浪底大道61号",
                "tel": "0379-67918888;0379-67912317",
                "distance": null
            }, {
                "id": "B0FFF0701N",
                "name": "孟津县人民医院-急诊",
                "type": "医疗保健服务;综合医院;综合医院",
                "location": {
                    "w": 34.82998,
                    "r": 112.44342,
                    "lng": 112.44342,
                    "lat": 34.82998
                },
                "address": "小浪底大道61附近",
                "tel": "0379-67921111;0379-67929696",
                "distance": null
            }, {
                "id": "B0FFFCM59K",
                "name": "孟津县人民医院(东南门)",
                "type": "医疗保健服务;综合医院;综合医院",
                "location": {
                    "w": 34.829793,
                    "r": 112.44379900000001,
                    "lng": 112.443799,
                    "lat": 34.829793
                },
                "address": "小浪底大道61号",
                "tel": "",
                "distance": null
            }, {
                "id": "B0FFF2MH13",
                "name": "孟津县人民医院-门诊楼",
                "type": "医疗保健服务;综合医院;综合医院",
                "location": {
                    "w": 34.82992,
                    "r": 112.44364000000002,
                    "lng": 112.44364,
                    "lat": 34.82992
                },
                "address": "小浪底大道61附近",
                "tel": "",
                "distance": null
            }, {
                "id": "B0FFF2USGR",
                "name": "孟津县人民医院-病房楼",
                "type": "医疗保健服务;综合医院;综合医院",
                "location": {
                    "w": 34.829987,
                    "r": 112.44297,
                    "lng": 112.44297,
                    "lat": 34.829987
                },
                "address": "小浪底大道61附近",
                "tel": "",
                "distance": null
            }]
        }, {
            "id": 18363,
            "status": 1,
            "name": "孟津妇幼保健院",
            "slug": "mengjinfuyoubaojianyuan",
            "type": 5,
            "poi": [{
                "id": "B0FFFCMC7J",
                "name": "孟津县妇幼保健院",
                "type": "医疗保健服务;专科医院;专科医院",
                "location": {
                    "w": 34.822179,
                    "r": 112.434327,
                    "lng": 112.434327,
                    "lat": 34.822179
                },
                "address": "会盟西路(锦绣花园对面)",
                "tel": "0379-67919957",
                "distance": null
            }, {
                "id": "B0FFFCMC7G",
                "name": "孟津县妇幼保健院(西南门)",
                "type": "医疗保健服务;专科医院;专科医院",
                "location": {
                    "w": 34.821483,
                    "r": 112.43426099999999,
                    "lng": 112.434261,
                    "lat": 34.821483
                },
                "address": "会盟大道附近",
                "tel": "",
                "distance": null
            }, {
                "id": "B017B0PLIA",
                "name": "西苑小区(孟津县妇幼保健院东北)",
                "type": "商务住宅;住宅区;住宅小区",
                "location": {
                    "w": 34.819411,
                    "r": 112.43299100000002,
                    "lng": 112.432991,
                    "lat": 34.819411
                },
                "address": "会盟大道附近",
                "tel": "",
                "distance": null
            }, {
                "id": "B0FFFCMC7O",
                "name": "可可超市(孟津县妇幼保健院南)",
                "type": "购物服务;便民商店/便利店;便民商店/便利店",
                "location": {
                    "w": 34.821505,
                    "r": 112.43409600000001,
                    "lng": 112.434096,
                    "lat": 34.821505
                },