{
    "data": {
        "landmarks": [{
            "id": 16261,
            "status": 1,
            "name": "万仙山景区",
            "slug": "wanxianshanjingqu",
            "type": 3,
            "poi": [{
                "id": "B017501JN9",
                "name": "万仙山景区",
                "type": "风景名胜;风景名胜;国家级景点",
                "location": {
                    "w": 35.724816,
                    "r": 113.622093,
                    "lng": 113.622093,
                    "lat": 35.724816
                },
                "address": "沙窑乡",
                "tel": "0373-6718764",
                "distance": null
            }, {
                "id": "B0FFFPR7EE",
                "name": "万仙山",
                "type": "风景名胜;风景名胜相关;旅游景点",
                "location": {
                    "w": 35.7267,
                    "r": 113.62621000000001,
                    "lng": 113.62621,
                    "lat": 35.7267
                },
                "address": "沙窑乡辉县市西北部太行山腹地沙窑乡境内",
                "tel": "",
                "distance": null
            }, {
                "id": "B0FFF00R6V",
                "name": "万仙山景区(东北门)",
                "type": "风景名胜;风景名胜;国家级景点",
                "location": {
                    "w": 35.726904,
                    "r": 113.62657000000002,
                    "lng": 113.62657,
                    "lat": 35.726904
                },
                "address": "沙窑乡万仙山景区",
                "tel": "",
                "distance": null
            }, {
                "id": "B0175015X3",
                "name": "万仙山景区停车场",
                "type": "交通设施服务;停车场;公共停车场",
                "location": {
                    "w": 35.707936,
                    "r": 113.60505699999999,
                    "lng": 113.605057,
                    "lat": 35.707936
                },
                "address": "达业路",
                "tel": "",
                "distance": null
            }, {
                "id": "B0175015TD",
                "name": "万仙山景区停车场",
                "type": "交通设施服务;停车场;公共停车场",
                "location": {
                    "w": 35.691077,
                    "r": 113.62124499999999,
                    "lng": 113.621245,
                    "lat": 35.691077
                },
                "address": "达业路",
                "tel": "",
                "distance": null
            }, {
                "id": "B0FFF00TKN",
                "name": "万仙山景区停车场",
                "type": "交通设施服务;停车场;公共停车场",
                "location": {
                    "w": 35.736673,
                    "r": 113.65015800000003,
                    "lng": 113.650158,
                    "lat": 35.736673
                },
                "address": "沙窑村万仙山景区",
                "tel": "",
                "distance": null
            }, {
                "id": "B0FFF00RGH",
                "name": "万仙山景区停车场",
                "type": "交通设施服务;停车场;公共停车场",
                "location": {
                    "w": 35.726634,
                    "r": 113.633241,
                    "lng": 113.633241,
                    "lat": 35.726634
                },
                "address": "沙窑村万仙山景区",
                "tel": "",
                "distance": null
            }, {
                "id": "B0FFFTHRNR",
                "name": "万仙山景区停车场",
                "type": "交通设施服务;停车场;公共停车场",
                "location": {
                    "w": 35.707609,
                    "r": 113.60899,
                    "lng": 113.60899,
                    "lat": 35.707609
                },
                "address": "沙窑村万仙山景区",
                "tel": "",
                "distance": null
            }, {
                "id": "B017501G7P",
                "name": "万仙山景区客运站",
                "type": "交通设施服务;长途汽车站;长途汽车站",
                "location": {
                    "w": 35.726708,
                    "r": 113.62676899999997,
                    "lng": 113.626769,
                    "lat": 35.726708
                },
                "address": "万仙山景区",
                "tel": "",
                "distance": null
            }, {
                "id": "B0FFF5UX4P",
                "name": "万仙山景区票务服务",
                "type": "生活服务;售票处;公园景点售票处",
                "location": {
                    "w": 35.726913,
                    "r": 113.63297,
                    "lng": 113.63297,
                    "lat": 35.726913
                },
                "address": "沙窑乡万仙山景区",
                "tel": "",
                "distance": null
            }]
        }, {
            "id": 9503,
            "status": 1,
            "name": "比干庙",
            "slug": "biganmiao",
            "type": 3,
            "poi": [{
                "id": "B01750128S",
                "name": "新乡比干庙园林景区",
                "type": "风景名胜;风景名胜;省级景点",
                "location": {
                    "w": 35.466094,
                    "r": 114.08747800000003,
                    "lng": 114.087478,
                    "lat": 35.466094
                },
                "address": "比干庙村",
                "tel": "0373-4131426",
                "distance": null
            }, {
                "id": "B01750129A",
                "name": "比干庙",
                "type": "风景名胜;风景名胜;寺庙道观",
                "location": {
                    "w": 35.463912,
                    "r": 114.08717000000001,
                    "lng": 114.08717,
                    "lat": 35.463912
                },
                "address": "比干乡比干大道北",
                "tel": "0373-4131426",
                "distance": null
            }, {
                "id": "B017500V7B",
                "name": "比干庙村",
                "type": "地名地址信息;普通地名;村庄级地名",
                "location": {
                    "w": 35.467137,
                    "r": 114.087425,
                    "lng": 114.087425,
                    "lat": 35.467137
                },
                "address": "",
                "tel": "",
                "distance": null
            }, {
                "id": "B01750OPAN",
                "name": "比干庙(西南门)",
                "type": "风景名胜;风景名胜;寺庙道观",
                "location": {
                    "w": 35.463463,
                    "r": 114.08704899999998,
                    "lng": 114.087049,
                    "lat": 35.463463
                },
                "address": "比干乡",
                "tel": "",
                "distance": null
            }, {
                "id": "B01750129B",
                "name": "比干庙停车场",
                "type": "交通设施服务;停车场;公共停车场",
                "location": {
                    "w": 35.463126,
                    "r": 114.08714099999997,
                    "lng": 114.087141,
                    "lat": 35.463126
                },
                "address": "比干乡",
                "tel": "",
                "distance": null
            }, {
                "id": "B01750OPAO",
                "name": "比干庙售票服务处",
                "type": "生活服务;售票处;公园景点售票处",
                "location": {
                    "w": 35.463503,
                    "r": 114.08673799999997,
                    "lng": 114.086738,
                    "lat": 35.463503
                },
                "address": "比干乡",
                "tel": "",
                "distance": null
            }, {
                "id": "B01750OP9C",
                "name": "比干庙童英早教乐园",
                "type": "科教文化服务;学校;幼儿园",
                "location": {
                    "w": 35.458415,
                    "r": 114.083326,
                    "lng": 114.083326,
                    "lat": 35.458415
                },
                "address": "新十三街2",
                "tel": "",
                "distance": null
            }]
        }, {
            "id": 3638,
            "status": 1,
            "name": "河南科技学院新科学院",
            "slug": "henankejixueyuanxinkexueyuan",
            "type": 1,
            "poi": [{
                "id": "B01750112V",
                "name": "河南科技学院新科学院",
                "type": "科教文化服务;学校;高等院校",
                "location": {
                    "w": 35.281948,
                    "r": 113.93476800000002,
                    "lng": 113.934768,
                    "lat": 35.281948
                },
                "address": "新原东路",
                "tel": "0373-3040395",
                "distance": null
            }, {
                "id": "B0FFF9QZE9",
                "name": "河南科技学院新科学院学苑7号楼",
                "type": "地名地址信息;门牌信息;楼栋号",
                "location": {
                    "w": 35.280304,
                    "r": 113.93428,
                    "lng": 113.93428,
                    "lat": 35.280304
                },
                "address": "",
                "tel": "",
                "distance": null
            }, {
                "id": "B0FFF9QZE8",
                "name": "河南科技学院新科学院学苑10号楼",
                "type": "地名地址信息;门牌信息;楼栋号",
                "location": {
                    "w": 35.280018,
                    "r": 113.933899,
                    "lng": 113.933899,
                    "lat": 35.280018
                },
                "address": "",
                "tel": "",
                "distance": null
            }, {
                "id": "B0FFF79HQO",
                "name": "河南科技学院新科学院教学楼2号楼",
                "type": "地名地址信息;门牌信息;楼栋号",
                "location": {
                    "w": 35.281331,
                    "r": 113.93415099999999,
                    "lng": 113.934151,
                    "lat": 35.281331
                },
                "address": "",
                "tel": "",
                "distance": null
            }, {
                "id": "B0FFFYTCO3",
                "name": "成都特色小吃",
                "type": "餐饮服务;中餐厅;四川菜(川菜)",
                "location": {
                    "w": 35.282155,
                    "r": 113.93429600000002,
                    "lng": 113.934296,
                    "lat": 35.282155
                },
                "address": "新原东路河南科技学院新科学院附近",
                "tel": "",
                "distance": null
            }]
        }, {
            "id": 18523,
            "status": 1,
            "name": "华隆购物广场",
            "slug": "hualonggouwuguangchang",
            "type": 6,
            "poi": [{
                "id": "B0FFFGN5E9",
                "name": "华隆购物广场(共城大道中段)",
                "type": "购物服务;商场;普通商场",
                "location": {
                    "w": 35.459269,
                    "r": 113.80116199999998,
                    "lng": 113.801162,
                    "lat": 35.459269
                },
                "address": "新建街与南大街交叉口向西250米路南",
                "tel": "",
                "distance": null
            }, {
                "id": "B017501CN0",
                "name": "华隆购物广场(赵固店)",
                "type": "购物服务;超级市场;超市",
                "location": {
                    "w": 35.425354,
                    "r": 113.67849999999999,
                    "lng": 113.6785,
                    "lat": 35.425354
                },
                "address": "黄马线附近",
                "tel": "0373-6967338;13663033869",
                "distance": null
            }, {
                "id": "B017500Y4L",
                "name": "华隆购物广场(南关街)",
                "type": "购物服务;商场;普通商场",
                "location": {
                    "w": 35.458904,
                    "r": 113.79582499999998,
                    "lng": 113.795825,
                    "lat": 35.458904
                },
                "address": "文昌大道",
                "tel": "",
                "distance": null
            }, {
                "id": "B0FFFGNKBM",
                "name": "华隆购物广场(苏门大道)",
                "type": "购物服务;商场;购物中心",
                "location": {
                    "w": 35.475889,
                    "r": 113.79320999999999,
                    "lng": 113.79321,
                    "lat": 35.475889
                },
                "address": "梅溪村",
                "tel": "0373-6232002",
                "distance": null
            }, {
                "id": "B0FFFY3IIV",
                "name": "华隆购物广场(丰城路)",
                "type": "购物服务;超级市场;超市",
                "location": {
                    "w": 35.356995,
                    "r": 113.59827000000001,
                    "lng": 113.59827,
                    "lat": 35.356995
                },
                "address": "",
                "tel": "",
                "distance": null
            }, {
                "id": "B0FFFVIBGF",
                "name": "华隆购物广场南区",
                "type": "购物服务;商场;商场",
                "location": {
                    "w": 35.459007,
                    "r": 113.80303000000004,
                    "lng": 113.80303,
                    "lat": 35.459007
                },
                "address": "南大街与新建街交叉处南行60米",
                "tel": "0373-6232019",
                "distance": null
            }, {
                "id": "B0FFF3ZKDG",
                "name": "华隆购物广场停车场",
                "type": "交通设施服务;停车场;公共停车场",
                "location": {
                    "w": 35.459675,
                    "r": 113.80286999999998,
                    "lng": 113.80287,
                    "lat": 35.459675
                },
                "address": "涌金大道附近",
                "tel": "",
                "distance": null
            }, {
                "id": "B017500Y4T",
                "name": "华隆购物广场新辉店(西环路)",
                "type": "购物服务;商场;普通商场",
                "location": {
                    "w": 35.45708,
                    "r": 113.795996,
                    "lng": 113.795996,
                    "lat": 35.45708
                },
                "address": "西环路南段",
                "tel": "",
                "distance": null
            }, {
                "id": "B0FFFV26BD",
                "name": "华隆购物广场峪河店",
                "type": "购物服务;商场;商场",
                "location": {
                    "w": 35.356896,
                    "r": 113.59829500000001,
                    "lng": 113.598295,
                    "lat": 35.356896
                },
                "address": "峪河邮政支局附近",
                "tel": "",
                "distance": null
            }, {
                "id": "B0FFFVF1U3",
                "name": "美特斯邦威(辉县华隆购物广场店)",
                "type": "购物服务;服装鞋帽皮具店;品牌服装店",
                "location": {
                    "w": 35.45762,
                    "r": 113.80037199999998,
                    "lng": 113.800372,
                    "lat": 35.45762
                },
                "address": "团结路13附近",
                "tel": "",
                "distance": null
            }]
        }, {
            "id": 3636,
            "status": 1,
            "name": "河科院",
            "slug": "hekeyuan",
            "type": 1,
            "poi": [{
                "id": "B017500L73",
                "name": "河南科技学院",
                "type": "科教文化服务;学校;高等院校",
                "location": {
                    "w": 35.281944,
                    "r": 113.934752,
                    "lng": 113.934752,
                    "lat": 35.281944
                },
                "address": "华兰大道东段",
                "tel": "0373-3040395",
                "distance": null
            }, {
                "id": "B017501XTO",
                "name": "河南科技学院(西门)",
                "type": "科教文化服务;学校;高等院校",
                "location": {
                    "w": 35.281884,
                    "r": 113.93335400000001,
                    "lng": 113.933354,
                    "lat": 35.281884
                },
                "address": "新原东路",
                "tel": "",
                "distance": null
            }, {
                "id": "B0FFF7J3Z5",
                "name": "河科院教学楼2号楼",
                "type": "地名地址信息;门牌信息;楼栋号",
                "location": {
                    "w": 35.281364,
                    "r": 113.93421899999998,
                    "lng": 113.934219,
                    "lat": 35.281364
                },
                "address": "",
                "tel": "",
                "distance": null
            }, {
                "id": "B017500XWH",
                "name": "河南科技学院",
                "type": "科教文化服务;学校;高等院校",
                "location": {
                    "w": 35.464109,
                    "r": 113.767223,
                    "lng": 113.767223,
                    "lat": 35.464109
                },
                "address": "东刘店村",
                "tel": "0373-6203000",
                "distance": null
            }, {
                "id": "B0175020TO",
                "name": "河南科技学院(东门)",
                "type": "科教文化服务;学校;高等院校",
                "location": {
                    "w": 35.279022,
                    "r": 113.944797,
                    "lng": 113.944797,
                    "lat": 35.279022
                },
                "address": "",
                "tel": "",
                "distance": null
            }, {
                "id": "B0FFG4Y3BS",
                "name": "河南科技学院(南门)",
                "type": "科教文化服务;科教文化场所;科教文化场所",
                "location": {
                    "w": 35.279945,
                    "r": 113.93119999999999,
                    "lng": 113.9312,
                    "lat": 35.279945
                },
                "address": "新中大道(南)附近",
                "tel": "",
                "distance": null
            }, {
                "id": "B0FFF433IY",
                "name": "河南科技学院医院",
                "type": "医疗保健服务;医疗保健服务场所;医疗保健服务场所",
                "location": {
                    "w": 35.278714,
                    "r": 113.94421999999997,
                    "lng": 113.94422,
                    "lat": 35.278714
                },
                "address": "未来大道附近",
                "tel": "",
                "distance": null
            }, {
                "id": "B01750112X",
                "name": "河南科技学院食品学院",
                "type": "科教文化服务;学校;高等院校",
                "location": {
                    "w": 35.277963,
                    "r": 113.94360899999998,
                    "lng": 113.943609,
                    "lat": 35.277963
                },
                "address": "俱兴大道",
                "tel": "",
                "distance": null
            }, {
                "id": "B0175021CN",
                "name": "河南科技学院图书馆",
                "type": "科教文化服务;图书馆;图书馆",
                "location": {
                    "w": 35.27844,
                    "r": 113.942047,
                    "lng": 113.942047,
                    "lat": 35.27844
                },
                "address": "河南科技学院内",
                "tel": "0373-3040154",
                "distance": null
            }, {
                "id": "B01750112W",
                "name": "河南科技学院停车场",
                "type": "交通设施服务;停车场;公共停车场",
                "location": {
                    "w": 35.281836,
                    "r": 113.93430000000001,
                    "lng": 113.9343,
                    "lat": 35.281836
                },
                "address": "颐康路",
                "tel": "",
                "distance": null
            }]
        }, {
            "id": 18525,
            "status": 1,
            "name": "辉县市中医院",
            "slug": "huixianshizhongyiyuan",
            "type": 5,
            "poi": [{
                "id": "B017500XVL",
                "name": "辉县市中医院",
                "type": "医疗保健服务;综合医院;综合医院",
                "location": {
                    "w": 35.456289,
                    "r": 113.79564900000003,
                    "lng": 113.795649,
                    "lat": 35.456289
                },
                "address": "西环路南段",
                "tel": "0373-6278240;0373-6278222",
                "distance": null
            }, {
                "id": "B0FFF4E7UW",
                "name": "辉县市中医院-门诊",
                "type": "医疗保健服务;综合医院;综合医院",
                "location": {
                    "w": 35.456715,
                    "r": 113.79523,
                    "lng": 113.79523,
                    "lat": 35.456715
                },
                "address": "友谊路附近",
                "tel": "",
                "distance": null
            }, {
                "id": "B0FFF4DIFD",
                "name": "辉县市中医院-急诊",
                "type": "医疗保健服务;急救中心;急救中心",
                "location": {
                    "w": 35.45657,
                    "r": 113.79524000000004,
                    "lng": 113.79524,
                    "lat": 35.45657
                },
                "address": "西环路南段辉县市中医院附近",
                "tel": "",
                "distance": null
            }, {
                "id": "B0FFF4M7OH",
                "name": "辉县市中医院-住院部",
                "type": "医疗保健服务;综合医院;综合医院",
                "location": {
                    "w": 35.45686,
                    "r": 113.79541999999998,
                    "lng": 113.79542,
                    "lat": 35.45686
                },
                "address": "友谊路附近",
                "tel": "",
                "distance": null
            }, {
                "id": "B0FFFVLNLJ",
                "name": "伊丽莎白整体家饰旗舰店",
                "type": "购物服务;家居建材市场;家居建材市场",
                "location": {
                    "w": 35.454966,
                    "r": 113.79516000000001,
                    "lng": 113.79516,
                    "lat": 35.454966
                },
                "address": "四路口村辉县市中医院附近",
                "tel": "",
                "distance": null
            }, {
                "id": "B0FFFZN4CA",
                "name": "鑫旺玩具总汇",
                "type": "购物服务;专卖店;儿童用品店",
                "location": {
                    "w": 35.456478,
                    "r": 113.79605800000002,
                    "lng": 113.796058,
                    "lat": 35.456478
                },
                "address": "西环路南段辉县市中医院附近",
                "tel": "15837375250;15136733388",
                "distance": null
            }]
        }, {
            "id": 18527,
            "status": 1,
            "name": "瑞城时代广场",
            "slug": "ruichengshidaiguangchang",
            "type": 6,
            "poi": [{
                "id": "B0FFF3J14Y",
                "name": "瑞城时代广场",
                "type": "购物服务;商场;购物中心",
                "location": {
                    "w": 35.458774,
                    "r": 113.79982000000001,
                    "lng": 113.79982,
                    "lat": 35.458774
                },
                "address": "文昌大道42号附近",
                "tel": "",
                "distance": null
            }, {
                "id": "B0FFF48KNA",
                "name": "蓝精灵生活馆",
                "type": "购物服务;专卖店;礼品饰品店",
                "location": {
                    "w": 35.458527,
                    "r": 113.80020999999999,
                    "lng": 113.80021,
                    "lat": 35.458527
                },
                "address": "瑞城时代广场",
                "tel": "0373-6636623",
                "distance": null
            }, {
                "id": "B0FFF4IWQP",
                "name": "蒙娜丽莎",
                "type": "购物服务;服装鞋帽皮具店;服装鞋帽皮具店",
                "location": {
                    "w": 35.458538,
                    "r": 113.80011999999999,
                    "lng": 113.80012,
                    "lat": 35.458538
                },
                "address": "南关街瑞城时代广场附近",
                "tel": "",
                "distance": null
            }, {
                "id": "B0FFF3XV6A",
                "name": "七色纺",
                "type": "购物服务;服装鞋帽皮具店;服装鞋帽皮具店",
                "location": {
                    "w": 35.4587,
                    "r": 113.799576,
                    "lng": 113.799576,
                    "lat": 35.4587
                },
                "address": "南关街瑞城时代广场附近",
                "tel": "",
                "distance": null
            }, {
                "id": "B0FFFZJKVQ",
                "name": "贩冰冰",
                "type": "餐饮服务;冷饮店;冷饮店",
                "location": {
                    "w": 35.459048,
                    "r": 113.80021099999999,
                    "lng": 113.800211,
                    "lat": 35.459048
                },
                "address": "南关街瑞城时代广场附近",
                "tel": "",
                "distance": null
            }, {
                "id": "B0FFG623R9",
                "name": "金城百货(南门)",
                "type": "通行设施;建筑物门;建筑物门",
                "location": {
                    "w": 35.459175,
                    "r": 113.79976199999999,
                    "lng": 113.799762,
                    "lat": 35.459175
                },
                "address": "南关街瑞城时代广场附近",
                "tel": "",
                "distance": null
            }, {
                "id": "B0FFG61IL9",
                "name": "涌金商贸城3号楼(南门)",
                "type": "通行设施;建筑物门;建筑物门",
                "location": {
                    "w": 35.459202,
                    "r": 113.79970100000003,
                    "lng": 113.799701,
                    "lat": 35.459202
                },
                "address": "南关街瑞城时代广场附近",
                "tel": "",
                "distance": null
            }, {
                "id": "B0FFF4F5D5",
                "name": "东娜美容美发(VIP至尊店)",
                "type": "生活服务;美容美发店;美容美发店",
                "location": {
                    "w": 35.458278,
                    "r": 113.79752500000001,
                    "lng": 113.797525,
                    "lat": 35.458278
                },
                "address": "南关街瑞城时代广场商业街西",
                "tel": "0373-5971066",
                "distance": null
            }, {
                "id": "B0FFG1NJF6",
                "name": "新乡炎帝生物健康生活体验馆",
                "type": "医疗保健服务;医疗保健服务场所;医疗保健服务场所",
                "location": {
                    "w": 35.457961,
                    "r": 113.79885000000002,
                    "lng": 113.79885,
                    "lat": 35.457961
                },
                "address": "瑞城时代广场文化街3-110号",
                "tel": "18568228306",
                "distance": null
            }, {
                "id": "B0FFFVR53R",
                "name": "杨铭宇黄焖鸡米饭(辉县店)",
                "type": "餐饮服务;中餐厅;中餐厅",
                "location": {
                    "w": 35.457464,
                    "r": 113.80184700000001,
                    "lng": 113.801847,
                    "lat": 35.457464
                },
                "address": "瑞城时代广场步行街东头地下停车场对过",
                "tel": "15036633222",
                "distance": null
            }]
        }, {
            "id": 3633,
            "status": 1,
            "name": "新乡学院",
            "slug": "xinxiangxueyuan",
            "type": 1,
            "poi": [{
                "id": "B01750112A",
                "name": "新乡学院",
                "type": "科教文化服务;学校;高等院校",
                "location": {
                    "w": 35.291552,
                    "r": 113.939074,
                    "lng": 113.939074,
                    "lat": 35.291552
                },
                "address": "金穗大道东段191号",
                "tel": "0373-3682901;0373-3682903",
                "distance": null
            }, {
                "id": "BV10094885",
                "name": "新乡学院(公交站)",
                "type": "交通设施服务;公交车站;公交车站相关",
                "location": {
                    "w": 35.29594,
                    "r": 113.94013999999999,
                    "lng": 113.94014,
                    "lat": 35.29594
                },
                "address": "9路;38路;51路;56路;60路;126路;146路",
                "tel": "",
                "distance": null
            }, {
                "id": "B01750180W",
                "name": "新乡学院(文化路东校区)",
                "type": "科教文化服务;学校;高等院校",
                "location": {
                    "w": 35.292033,
                    "r": 113.87456800000001,
                    "lng": 113.874568,
                    "lat": 35.292033
                },
                "address": "文化街196号",
                "tel": "0373-5071920",
                "distance": null
            }, {
                "id": "B017500ZO6",
                "name": "新乡学院(文化路西校区)",
                "type": "科教文化服务;学校;高等院校",
                "location": {
                    "w": 35.292834,
                    "r": 113.87337600000001,
                    "lng": 113.873376,
                    "lat": 35.292834
                },
                "address": "文化路196号",
                "tel": "0373-5071920",
                "distance": null
            }, {
                "id": "B017501Y6U",
                "name": "新乡学院(南门)",
                "type": "科教文化服务;学校;高等院校",
                "location": {
                    "w": 35.288152,
                    "r": 113.94249500000001,
                    "lng": 113.942495,
                    "lat": 35.288152
                },
                "address": "新乡学院",
                "tel": "",
                "distance": null
            }, {
                "id": "B017501129",
                "name": "新乡学院(东门)",
                "type": "科教文化服务;学校;高等院校",
                "location": {
                    "w": 35.291463,
                    "r": 113.94609700000001,
                    "lng": 113.946097,
                    "lat": 35.291463
                },
                "address": "金穗大道东段",
                "tel": "0373-3683015",
                "distance": null
            }, {
                "id": "B01750O37H",
                "name": "新乡学院(北门)",
                "type": "科教文化服务;学校;高等院校",
                "location": {
                    "w": 35.295688,
                    "r": 113.941483,
                    "lng": 113.941483,
                    "lat": 35.295688
                },
                "address": "金穗大道附近",
                "tel": "",
                "distance": null
            }, {
                "id": "B017501127",
                "name": "新乡学院(北1门)",
                "type": "科教文化服务;学校;高等院校",
                "location": {
                    "w": 35.295268,
                    "r": 113.94184200000001,
                    "lng": 113.941842,
                    "lat": 35.295268
                },
                "address": "金穗大道",
                "tel": "",
                "distance": null
            }, {
                "id": "B0FFFWZFAL",
                "name": "新乡学院(南门)",
                "type": "科教文化服务;学校;高等院校",
                "location": {
                    "w": 35.286958,
                    "r": 113.93521699999997,
                    "lng": 113.935217,
                    "lat": 35.286958
                },
                "address": "向阳路678附近",
                "tel": "",
                "distance": null
            }, {
                "id": "B01750NILC",
                "name": "新乡学院(北2门)",
                "type": "科教文化服务;学校;高等院校",
                "location": {
                    "w": 35.295656,
                    "r": 113.93878000000001,
                    "lng": 113.93878,
                    "lat": 35.295656
                },
                "address": "金穗大道",
                "tel": "",
                "distance": null
            }]
        }, {
            "id": 3631,
            "status": 1,
            "name": "河南科技学院",
            "slug": "henankejixueyuan",
            "type": 1,
            "poi": [{
                "id": "B017500XWH",
                "name": "河南科技学院",
                "type": "科教文化服务;学校;高等院校",
                "location": {
                    "w": 35.464109,
                    "r": 113.767223,
                    "lng": 113.767223,
                    "lat": 35.464109
                },
                "address": "东刘店村",
                "tel": "0373-6203000",
                "distance": null
            }, {
                "id": "B017500L73",
                "name": "河南科技学院",
                "type": "科教文化服务;学校;高等院校",
                "location": {
                    "w": 35.281944,
                    "r": 113.934752,
                    "lng": 113.934752,
                    "lat": 35.281944
                },
                "address": "华兰大道东段",
                "tel": "0373-3040395",
                "distance": null
            }, {
                "id": "B017501XTO",
                "name": "河南科技学院(西门)",
                "type": "科教文化服务;学校;高等院校",
                "location": {
                    "w": 35.281884,
                    "r": 113.93335400000001,
                    "lng": 113.933354,
                    "lat": 35.281884
                },
                "address": "新原东路",
                "tel": "",
                "distance": null
            }, {
                "id": "B0175020TO",
                "name": "河南科技学院(东门)",
                "type": "科教文化服务;学校;高等院校",
                "location": {
                    "w": 35.279022,
                    "r": 113.944797,
                    "lng": 113.944797,
                    "lat": 35.279022
                },
                "address": "",
                "tel": "",
                "distance": null
            }, {
                "id": "B0FFG4Y3BS",
                "name": "河南科技学院(南门)",
                "type": "科教文化服务;科教文化场所;科教文化场所",
                "location": {
                    "w": 35.279945,
                    "r": 113.93119999999999,
                    "lng": 113.9312,
                    "lat": 35.279945
                },
                "address": "新中大道(南)附近",
                "tel": "",
                "distance": null
            }, {
                "id": "B01750112W",
                "name": "河南科技学院停车场",
                "type": "交通设施服务;停车场;公共停车场",
                "location": {
                    "w": 35.281836,
                    "r": 113.93430000000001,
                    "lng": 113.9343,
                    "lat": 35.281836
                },
                "address": "颐康路",
                "tel": "",
                "distance": null
            }, {
                "id": "B0175021CN",
                "name": "河南科技学院图书馆",
                "type": "科教文化服务;图书馆;图书馆",
                "location": {
                    "w": 35.27844,
                    "r": 113.942047,
                    "lng": 113.942047,
                    "lat": 35.27844
                },
                "address": "河南科技学院内",
                "tel": "0373-3040154",
                "distance": null
            }, {
                "id": "B01750NUCT",
                "name": "河南科技学院-游泳馆",
                "type": "体育休闲服务;运动场馆;运动场所",
                "location": {
                    "w": 35.27856,
                    "r": 113.93903,
                    "lng": 113.93903,
                    "lat": 35.27856
                },
                "address": "新原路",
                "tel": "",
                "distance": null
            }, {
                "id": "B0FFF433IY",
                "name": "河南科技学院医院",
                "type": "医疗保健服务;医疗保健服务场所;医疗保健服务场所",
                "location": {
                    "w": 35.278714,
                    "r": 113.94421999999997,
                    "lng": 113.94422,
                    "lat": 35.278714
                },
                "address": "未来大道附近",
                "tel": "",
                "distance": null
            }, {
                "id": "B01750O4N3",
                "name": "河南科技学院印务中心",
                "type": "科教文化服务;学校;高等院校",
                "location": {
                    "w": 35.28048,
                    "r": 113.93722500000001,
                    "lng": 113.937225,
                    "lat": 35.28048
                },
                "address": "和文苑路后勤服务集团职工宿舍附近",
                "tel": "",
                "distance": null
            }]
        }, {
            "id": 6178,
            "status": 1,
            "name": "宝龙城市广场",
            "slug": "baolongchengshiguangchang",
            "type": 6,
            "poi": [{
                "id": "B0FFFC0BTY",
                "name": "宝龙城市广场(金穗大道东)",
                "type": "购物服务;商场;购物中心",
                "location": {
                    "w": 35.295596,
                    "r": 113.920747,
                    "lng": 113.920747,
                    "lat": 35.295596
                },
                "address": "金穗大道与新二街交叉口",
                "tel": "",
                "distance": null
            }, {
                "id": "BV10470602",
                "name": "宝龙城市广场(公交站)",
                "type": "交通设施服务;公交车站;公交车站相关",
                "location": {
                    "w": 35.295864,
                    "r": 113.92025799999999,
                    "lng": 113.920258,
                    "lat": 35.295864
                },
                "address": "22路;38路;56路;60路;146路",
                "tel": "",
                "distance": null
            }, {
                "id": "B01750NP08",
                "name": "宝龙城市广场2期",
                "type": "商务住宅;住宅区;住宅小区",
                "location": {
                    "w": 35.294733,
                    "r": 113.91928000000001,
                    "lng": 113.91928,
                    "lat": 35.294733
                },
                "address": "金穗大道与新一街交叉口东南角",
                "tel": "",
                "distance": null
            }, {
                "id": "BV10430223",
                "name": "宝龙城市广场(金穗大道新一街口)(公交站)",
                "type": "交通设施服务;公交车站;公交车站相关",
                "location": {
                    "w": 35.295971,
                    "r": 113.917328,
                    "lng": 113.917328,
                    "lat": 35.295971
                },
                "address": "56路;126路",
                "tel": "",
                "distance": null
            }, {
                "id": "B0FFFF3WZ0",
                "name": "宝龙城市广场东区",
                "type": "商务住宅;住宅区;住宅小区",
                "location": {
                    "w": 35.295338,
                    "r": 113.92502999999999,
                    "lng": 113.92503,
                    "lat": 35.295338
                },
                "address": "金穗大道(东)附近",
                "tel": "",
                "distance": null
            }, {
                "id": "B0FFF44L5V",
                "name": "宝龙城市广场(4号门)",
                "type": "购物服务;商场;购物中心",
                "location": {
                    "w": 35.294076,
                    "r": 113.92117000000002,
                    "lng": 113.92117,
                    "lat": 35.294076
                },
                "address": "新二街附近",
                "tel": "",
                "distance": null
            }, {
                "id": "B0FFF44AY0",
                "name": "宝龙城市广场(3号门)",
                "type": "风景名胜;公园广场;公园广场",
                "location": {
                    "w": 35.294785,
                    "r": 113.92239000000001,
                    "lng": 113.92239,
                    "lat": 35.294785
                },
                "address": "新二街附近",
                "tel": "",
                "distance": null
            }, {
                "id": "B0FFF3X46Q",
                "name": "宝龙城市广场(6号门)",
                "type": "商务住宅;商务住宅相关;商务住宅相关",
                "location": {
                    "w": 35.294708,
                    "r": 113.91966000000002,
                    "lng": 113.91966,
                    "lat": 35.294708
                },
                "address": "新一街宝龙城市广场2期附近",
                "tel": "",
                "distance": null
            }, {
                "id": "B0FFF4F4UX",
                "name": "宝龙城市广场(5号门)",
                "type": "商务住宅;商务住宅相关;商务住宅相关",
                "location": {
                    "w": 35.294054,
                    "r": 113.92074000000002,
                    "lng": 113.92074,
                    "lat": 35.294054
                },
                "address": "新一街附近",
                "tel": "",
                "distance": null
            }, {
                "id": "B0FFF45E0W",
                "name": "宝龙城市广场(西门)",
                "type": "商务住宅;商务住宅相关;商务住宅相关",
                "location": {
                    "w": 35.292994,
                    "r": 113.92673400000001,
                    "lng": 113.926734,
                    "lat": 35.292994
                },
                "address": "友谊路宝龙国际社区附近",
                "tel": "",
                "distance": null
            }]
        }, {
            "id": 25579,
            "status": 1,
            "name": "三七一医院",
            "slug": "sanqiyiyiyuan",
            "type": 5,
            "poi": [{
                "id": "BV10094941",
                "name": "三七一医院(公交站)",
                "type": "交通设施服务;公交车站;公交车站相关",
                "location": {
                    "w": 35.289787,
                    "r": 113.87420700000001,
                    "lng": 113.874207,
                    "lat": 35.289787
                },
                "address": "4路;7路;28路;43路;63路",
                "tel": "",
                "distance": null
            }, {
                "id": "B01750NY2E",
                "name": "三七一医院-门诊楼",
                "type": "医疗保健服务;医疗保健服务场所;医疗保健服务场所",
                "location": {
                    "w": 35.289318,
                    "r": 113.87459000000001,
                    "lng": 113.87459,
                    "lat": 35.289318
                },
                "address": "文化路210号",
                "tel": "",
                "distance": null
            }, {
                "id": "B0FFF4GJN7",
                "name": "中国人民解放军第三七一医院(北门)",
                "type": "医疗保健服务;综合医院;综合医院",
                "location": {
                    "w": 35.290337,
                    "r": 113.87432000000001,
                    "lng": 113.87432,
                    "lat": 35.290337
                },
                "address": "文化街210号",
                "tel": "",
                "distance": null
            }, {
                "id": "B0FFG4WVKO",
                "name": "三七一医院-门诊部",
                "type": "医疗保健服务;综合医院;综合医院",
                "location": {
                    "w": 35.288275,
                    "r": 113.875743,
                    "lng": 113.875743,
                    "lat": 35.288275
                },
                "address": "向阳路中国人民解放军三七一中心医院-门诊部附近",
                "tel": "",
                "distance": null
            }, {
                "id": "B0FFG62M8Y",
                "name": "中国人民解放军第三七一医院(西2门)",
                "type": "医疗保健服务;综合医院;三级甲等医院",
                "location": {
                    "w": 35.290289,
                    "r": 113.874415,
                    "lng": 113.874415,
                    "lat": 35.290289
                },
                "address": "文化街210号",
                "tel": "",
                "distance": null
            }, {
                "id": "B01750NV5A",
                "name": "三七一医院生活区",
                "type": "商务住宅;住宅区;住宅小区",
                "location": {
                    "w": 35.2878,
                    "r": 113.87691999999998,
                    "lng": 113.87692,
                    "lat": 35.2878
                },
                "address": "向阳路371号",
                "tel": "",
                "distance": null
            }, {
                "id": "B0FFG7S9C0",
                "name": "三七一医院-眼科",
                "type": "医疗保健服务;综合医院;综合医院",
                "location": {
                    "w": 35.289886,
                    "r": 113.87439599999999,
                    "lng": 113.874396,
                    "lat": 35.289886
                },
                "address": "文化街214附近",
                "tel": "",
                "distance": null
            }, {
                "id": "B01750NWT5",
                "name": "三七一医院口腔中心",
                "type": "医疗保健服务;专科医院;口腔医院",
                "location": {
                    "w": 35.28996,
                    "r": 113.87437399999999,
                    "lng": 113.874374,
                    "lat": 35.28996
                },
                "address": "文化路210号",
                "tel": "",
                "distance": null
            }, {
                "id": "B01750NWT0",
                "name": "三七一医院-急救中心",
                "type": "医疗保健服务;医疗保健服务场所;医疗保健服务场所",
                "location": {
                    "w": 35.289884,
                    "r": 113.87473999999997,
                    "lng": 113.87474,
                    "lat": 35.289884
                },
                "address": "文化路210号",
                "tel": "0373-5081110",
                "distance": null
            }, {
                "id": "B0FFF79ZVG",
                "name": "三七一医院8号楼",
                "type": "地名地址信息;门牌信息;楼栋号",
                "location": {
                    "w": 35.290112,
                    "r": 113.87705199999999,
                    "lng": 113.877052,
                    "lat": 35.290112
                },
                "address": "",
                "tel": "",
                "distance": null
            }]
        }, {
            "id": 3627,
            "status": 1,
            "name": "新乡医学院",
            "slug": "xinxiangyixueyuan",
            "type": 1,
            "poi": [{
                "id": "B017501126",
                "name": "新乡医学院",
                "type": "科教文化服务;学校;高等院校",
                "location": {
                    "w": 35.291488,
                    "r": 113.93595399999998,
                    "lng": 113.935954,
                    "lat": 35.291488
                },
                "address": "五一路东段45号",
                "tel": "0373-3029248",
                "distance": null
            }, {
                "id": "BV10094781",
                "name": "新乡医学院(公交站)",
                "type": "交通设施服务;公交车站;公交车站相关",
                "location": {
                    "w": 35.295956,
                    "r": 113.92964899999998,
                    "lng": 113.929649,
                    "lat": 35.295956
                },
                "address": "51路;126路;146路;K62路",
                "tel": "",
                "distance": null
            }, {
                "id": "B0175012KR",
                "name": "新乡医学院(学院西路)",
                "type": "科教文化服务;学校;高等院校",
                "location": {
                    "w": 35.410243,
                    "r": 114.06057499999997,
                    "lng": 114.060575,
                    "lat": 35.410243
                },
                "address": "",
                "tel": "",
                "distance": null
            }, {
                "id": "B0FFF00QL3",
                "name": "新乡医学院三全学院(平原校区)",
                "type": "科教文化服务;学校;高等院校",
                "location": {
                    "w": 34.994455,
                    "r": 113.68225699999999,
                    "lng": 113.682257,
                    "lat": 34.994455
                },
                "address": "311省道以南大堤以北107国道以西",
                "tel": "0373-7375781;0373-7375782",
                "distance": null
            }, {
                "id": "B01750O612",
                "name": "新乡医学院-北区",
                "type": "科教文化服务;学校;高等院校",
                "location": {
                    "w": 35.29162,
                    "r": 113.93390999999997,
                    "lng": 113.93391,
                    "lat": 35.29162
                },
                "address": "金穗大道",
                "tel": "0373-3029008",
                "distance": null
            }, {
                "id": "B01750115B",
                "name": "新乡医学院(南门)",
                "type": "科教文化服务;学校;高等院校",
                "location": {
                    "w": 35.282358,
                    "r": 113.93212800000003,
                    "lng": 113.932128,
                    "lat": 35.282358
                },
                "address": "华兰大道东段",
                "tel": "",
                "distance": null
            }, {
                "id": "B017501123",
                "name": "新乡医学院(北门)",
                "type": "科教文化服务;学校;高等院校",
                "location": {
                    "w": 35.295612,
                    "r": 113.93338599999998,
                    "lng": 113.933386,
                    "lat": 35.295612
                },
                "address": "金穗大道",
                "tel": "",
                "distance": null
            }, {
                "id": "B01750NS7J",
                "name": "新乡医学院北区(北门)",
                "type": "商务住宅;商务住宅相关;商务住宅相关",
                "location": {
                    "w": 35.295338,
                    "r": 113.93376999999998,
                    "lng": 113.93377,
                    "lat": 35.295338
                },
                "address": "金穗大道601号",
                "tel": "0373-3029248",
                "distance": null
            }, {
                "id": "B0175015YU",
                "name": "新乡医学院第三附属医院",
                "type": "医疗保健服务;综合医院;综合医院",
                "location": {
                    "w": 35.281091,
                    "r": 113.925884,
                    "lng": 113.925884,
                    "lat": 35.281091
                },
                "address": "华兰大道东段",
                "tel": "0373-3029611;0373-3029600",
                "distance": null
            }, {
                "id": "B01750NILD",
                "name": "新乡医学院(华兰大道)",
                "type": "科教文化服务;学校;高等院校",
                "location": {
                    "w": 35.283076,
                    "r": 113.93244400000003,
                    "lng": 113.932444,
                    "lat": 35.283076
                },
                "address": "",
                "tel": "",
                "distance": null
            }]
        }, {
            "id": 25577,
            "status": 1,
            "name": "新乡市第二人民医院",
            "slug": "xinxiangshidierrenminyiyuan",
            "type": 5,
            "poi": [{
                "id": "B017502214",
                "name": "新乡市第二人民医院",
                "type": "医疗保健服务;综合医院;综合医院",
                "location": {
                    "w": 35.316306,
                    "r": 113.87888700000002,
                    "lng": 113.878887,
                    "lat": 35.316306
                },
                "address": "宏力大道中389号",
                "tel": "0373-2064011;0373-2059474",
                "distance": null
            }, {
                "id": "B01750NWO9",
                "name": "新乡市第二人民医院电源产业园区分院",
                "type": "医疗保健服务;医疗保健服务场所;医疗保健服务场所",
                "location": {
                    "w": 35.345737,
                    "r": 113.95776999999998,
                    "lng": 113.95777,
                    "lat": 35.345737
                },
                "address": "",
                "tel": "",
                "distance": null
            }, {
                "id": "B01750NIFC",
                "name": "新乡市第二人民医院停车场",
                "type": "交通设施服务;停车场;公共停车场",
                "location": {
                    "w": 35.316607,
                    "r": 113.87842999999998,
                    "lng": 113.87843,
                    "lat": 35.316607
                },
                "address": "宏力大道中389号",
                "tel": "0373-2059474;0373-2813380",
                "distance": null
            }, {
                "id": "B0FFFGN2JM",
                "name": "新乡市第二人民医院(北门)",
                "type": "医疗保健服务;综合医院;综合医院",
                "location": {
                    "w": 35.316695,
                    "r": 113.87843800000002,
                    "lng": 113.878438,
                    "lat": 35.316695
                },
                "address": "宏力大道中389号",
                "tel": "",
                "distance": null
            }, {
                "id": "B0FFG50NCL",
                "name": "新乡市第二人民医院(东1门)",
                "type": "医疗保健服务;综合医院;综合医院",
                "location": {
                    "w": 35.315625,
                    "r": 113.87977799999999,
                    "lng": 113.879778,
                    "lat": 35.315625
                },
                "address": "劳动中街51号附近",
                "tel": "",
                "distance": null
            }, {
                "id": "B0FFG50MXN",
                "name": "新乡市第二人民医院(东2门)",
                "type": "医疗保健服务;综合医院;综合医院",
                "location": {
                    "w": 35.316087,
                    "r": 113.87980800000003,
                    "lng": 113.879808,
                    "lat": 35.316087
                },
                "address": "郊委路附近",
                "tel": "",
                "distance": null
            }, {
                "id": "B01750NWOI",
                "name": "新乡市第二人民医院-急诊",
                "type": "医疗保健服务;综合医院;综合医院",
                "location": {
                    "w": 35.316418,
                    "r": 113.87824,
                    "lng": 113.87824,
                    "lat": 35.316418
                },
                "address": "宏力大道389号",
                "tel": "",
                "distance": null
            }, {
                "id": "B0175011LU",
                "name": "新乡县第二人民医院",
                "type": "医疗保健服务;综合医院;综合医院",
                "location": {
                    "w": 35.163261,
                    "r": 113.802502,
                    "lng": 113.802502,
                    "lat": 35.163261
                },
                "address": "青年路",
                "tel": "0373-5600120;0373-5603501",
                "distance": null
            }, {
                "id": "B0FFFZHO9R",
                "name": "新乡市第二人民医院协作医院",
                "type": "医疗保健服务;综合医院;综合医院",
                "location": {
                    "w": 35.069427,
                    "r": 114.60206599999998,
                    "lng": 114.602066,
                    "lat": 35.069427
                },
                "address": "213省道附近",
                "tel": "",
                "distance": null
            }, {
                "id": "B0FFFGMZN5",
                "name": "新乡市第二人民医院整形美容科",
                "type": "医疗保健服务;专科医院;整形美容",
                "location": {
                    "w": 35.316517,
                    "r": 113.87773700000002,
                    "lng": 113.877737,
                    "lat": 35.316517
                },
                "address": "宏力大道(中)385附近",
                "tel": "",
                "distance": null
            }]
        }, {
            "id": 18565,
            "status": 1,
            "name": "长垣汽车站",
            "slug": "zhangyuanqichezhan",
            "type": 8,
            "poi": [{
                "id": "B0FFG043F0",
                "name": "长垣汽车站",
                "type": "交通设施服务;长途汽车站;长途汽车站",
                "location": {
                    "w": 35.202463,
                    "r": 114.709697,
                    "lng": 114.709697,
                    "lat": 35.202463
                },
                "address": "长城大道东端",
                "tel": "0373-8816001",
                "distance": null
            }, {
                "id": "B0FFG61NN9",
                "name": "长垣汽车站老岸车站",
                "type": "生活服务;售票处;长途汽车票代售点",
                "location": {
                    "w": 35.379039,
                    "r": 114.862753,
                    "lng": 114.862753,
                    "lat": 35.379039
                },
                "address": "308省道附近",
                "tel": "0373-8908080;13782559779",
                "distance": null
            }, {
                "id": "B0FFF8QEE2",
                "name": "长垣车站小区3号楼",
                "type": "地名地址信息;门牌信息;楼栋号",
                "location": {
                    "w": 35.204206,
                    "r": 114.70854300000002,
                    "lng": 114.708543,
                    "lat": 35.204206
                },
                "address": "",
                "tel": "",
                "distance": null
            }, {
                "id": "B017501AKA",
                "name": "长垣县丁栾镇汽车客运站",
                "type": "交通设施服务;长途汽车站;长途汽车站",
                "location": {
                    "w": 35.290241,
                    "r": 114.75837000000001,
                    "lng": 114.75837,
                    "lat": 35.290241
                },
                "address": "001乡道附近",
                "tel": "",
                "distance": null
            }, {
                "id": "B017501B3Q",
                "name": "东安宾馆",
                "type": "住宿服务;宾馆酒店;宾馆酒店",
                "location": {
                    "w": 35.202236,
                    "r": 114.710327,
                    "lng": 114.710327,
                    "lat": 35.202236
                },
                "address": "308省道长垣汽车站对面",
                "tel": "0373-8812397",
                "distance": null
            }]
        }, {
            "id": 25575,
            "status": 1,
            "name": "新乡市中医院",
            "slug": "xinxiangshizhongyiyuan",
            "type": 5,
            "poi": [{
                "id": "B017500AB9",
                "name": "新乡市中医院",
                "type": "医疗保健服务;综合医院;综合医院",
                "location": {
                    "w": 35.287585,
                    "r": 113.88511199999999,
                    "lng": 113.885112,
                    "lat": 35.287585
                },
                "address": "向阳路511号",
                "tel": "0373-5031011",
                "distance": null
            }, {
                "id": "B0FFFGNNRA",
                "name": "新乡市中医院(南门)",
                "type": "医疗保健服务;综合医院;综合医院",
                "location": {
                    "w": 35.287375,
                    "r": 113.88510400000001,
                    "lng": 113.885104,
                    "lat": 35.287375
                },
                "address": "向阳路511号",
                "tel": "",
                "distance": null
            }, {
                "id": "B01750OLIZ",
                "name": "新乡市中医院-急诊",
                "type": "医疗保健服务;综合医院;综合医院",
                "location": {
                    "w": 35.287727,
                    "r": 113.88571000000002,
                    "lng": 113.88571,
                    "lat": 35.287727
                },
                "address": "向阳路511号",
                "tel": "0373-5050120",
                "distance": null
            }, {
                "id": "B01750O7TV",
                "name": "新乡市中医院门诊楼",
                "type": "医疗保健服务;综合医院;综合医院",
                "location": {
                    "w": 35.287556,
                    "r": 113.88495,
                    "lng": 113.88495,
                    "lat": 35.287556
                },
                "address": "向阳路511号",
                "tel": "",
                "distance": null
            }, {
                "id": "B017500ABD",
                "name": "新乡县中医院",
                "type": "医疗保健服务;综合医院;综合医院",
                "location": {
                    "w": 35.242439,
                    "r": 114.00104099999999,
                    "lng": 114.001041,
                    "lat": 35.242439
                },
                "address": "古固寨镇古北街村",
                "tel": "0373-5750135",
                "distance": null
            }, {
                "id": "B0FFG78Y7H",
                "name": "新乡市中医院病房楼",
                "type": "医疗保健服务;综合医院;综合医院",
                "location": {
                    "w": 35.287574,
                    "r": 113.88511399999999,
                    "lng": 113.885114,
                    "lat": 35.287574
                },
                "address": "向阳路529附近",
                "tel": "",
                "distance": null
            }, {
                "id": "B01750218U",
                "name": "新乡中医院家属院",
                "type": "商务住宅;住宅区;住宅小区",
                "location": {
                    "w": 35.288908,
                    "r": 113.88539300000002,
                    "lng": 113.885393,
                    "lat": 35.288908
                },
                "address": "渠东路20号",
                "tel": "",
                "distance": null
            }, {
                "id": "B017500Z9P",
                "name": "新乡市口腔医院",
                "type": "医疗保健服务;专科医院;口腔医院",
                "location": {
                    "w": 35.307147,
                    "r": 113.86562000000004,
                    "lng": 113.86562,
                    "lat": 35.307147
                },
                "address": "解放路202号",
                "tel": "0373-2073690",
                "distance": null
            }, {
                "id": "B0FFFGN7IB",
                "name": "新乡市中心医院(南门)",
                "type": "医疗保健服务;综合医院;三级甲等医院",
                "location": {
                    "w": 35.29619,
                    "r": 113.86531400000001,
                    "lng": 113.865314,
                    "lat": 35.29619
                },
                "address": "金穗大道56号",
                "tel": "",
                "distance": null
            }, {
                "id": "B0FFFGN3GX",
                "name": "新乡市中心医院东院",
                "type": "医疗保健服务;综合医院;三级甲等医院",
                "location": {
                    "w": 35.296577,
                    "r": 113.86659199999997,
                    "lng": 113.866592,
                    "lat": 35.296577
                },
                "address": "金穗大道(中)56附近",
                "tel": "",
                "distance": null
            }]
        }, {
            "id": 25574,
            "status": 1,
            "name": "新乡第四人民医院",
            "slug": "xinxiangdisirenminyiyuan",
            "type": 5,
            "poi": [{
                "id": "B0175014DC",
                "name": "新乡市第四人民医院",
                "type": "医疗保健服务;综合医院;综合医院",
                "location": {
                    "w": 35.306907,
                    "r": 113.86291,
                    "lng": 113.86291,
                    "lat": 35.306907
                },
                "address": "自由街136号",
                "tel": "0373-7061606",
                "distance": null
            }, {
                "id": "B0FFF5LBM2",
                "name": "新乡市第四人民医院-急诊",
                "type": "医疗保健服务;医疗保健服务场所;医疗保健服务场所",
                "location": {
                    "w": 35.306465,
                    "r": 113.86283000000003,
                    "lng": 113.86283,
                    "lat": 35.306465
                },
                "address": "自由街143号附近",
                "tel": "",
                "distance": null
            }, {
                "id": "B0FFFGNE38",
                "name": "新乡市第四人民医院(西门)",
                "type": "医疗保健服务;综合医院;综合医院",
                "location": {
                    "w": 35.306644,
                    "r": 113.862865,
                    "lng": 113.862865,
                    "lat": 35.306644
                },
                "address": "自由街136号",
                "tel": "",
                "distance": null
            }, {
                "id": "B0FFFGNE5T",
                "name": "新乡市第四人民医院中同南街牙科门诊",
                "type": "医疗保健服务;诊所;诊所",
                "location": {
                    "w": 35.307195,
                    "r": 113.855005,
                    "lng": 113.855005,
                    "lat": 35.307195
                },
                "address": "中同南街18附近",
                "tel": "13007664141;13462320307",
                "distance": null
            }, {
                "id": "B0FFFGNCTW",
                "name": "第四人民医院口腔门诊",
                "type": "医疗保健服务;诊所;诊所",
                "location": {
                    "w": 35.300502,
                    "r": 113.861738,
                    "lng": 113.861738,
                    "lat": 35.300502
                },
                "address": "自由街223号",
                "tel": "0373-2110120",
                "distance": null
            }, {
                "id": "B0FFG6TZ42",
                "name": "第四人民医院眼科门诊部",
                "type": "医疗保健服务;诊所;诊所",
                "location": {
                    "w": 35.299496,
                    "r": 113.870679,
                    "lng": 113.870679,
                    "lat": 35.299496
                },
                "address": "健康路38号附近",
                "tel": "0373-2041888",
                "distance": null
            }, {
                "id": "B0FFFVB3HV",
                "name": "第四人民医院口腔门诊牙科",
                "type": "医疗保健服务;诊所;诊所",
                "location": {
                    "w": 35.300508,
                    "r": 113.862192,
                    "lng": 113.862192,
                    "lat": 35.300508
                },
                "address": "自由街362附近",
                "tel": "0373-2110120",
                "distance": null
            }, {
                "id": "B0FFFY8URD",
                "name": "穆大夫激光整形美容诊所",
                "type": "医疗保健服务;专科医院;整形美容",
                "location": {
                    "w": 35.302322,
                    "r": 113.86396400000001,
                    "lng": 113.863964,
                    "lat": 35.302322
                },
                "address": "人民中路人民路小学东面第四个门",
                "tel": "0373-2020588",
                "distance": null
            }, {
                "id": "B01750162W",
                "name": "辉县市四院",
                "type": "医疗保健服务;医疗保健服务场所;医疗保健服务场所",
                "location": {
                    "w": 35.475904,
                    "r": 113.80169000000001,
                    "lng": 113.80169,
                    "lat": 35.475904
                },
                "address": "城北街54号",
                "tel": "0373-6292147",
                "distance": null
            }]
        }, {
            "id": 25573,
            "status": 1,
            "name": "新乡市中心医院",
            "slug": "xinxiangshizhongxinyiyuan",
            "type": 5,
            "poi": [{
                "id": "B017500ZK5",
                "name": "中心医院",
                "type": "医疗保健服务;综合医院;三级甲等医院",
                "location": {
                    "w": 35.296758,
                    "r": 113.86531400000001,
                    "lng": 113.865314,
                    "lat": 35.296758
                },
                "address": "金穗大道56号",
                "tel": "0373-2041039;0373-2048907;0373-2022300",
                "distance": null
            }, {
                "id": "B0FFFGN7IB",
                "name": "新乡市中心医院(南门)",
                "type": "医疗保健服务;综合医院;三级甲等医院",
                "location": {
                    "w": 35.29619,
                    "r": 113.86531400000001,
                    "lng": 113.865314,
                    "lat": 35.29619
                },
                "address": "金穗大道56号",
                "tel": "",
                "distance": null
            }, {
                "id": "B017501JI7",
                "name": "新乡市中心医院急诊科",
                "type": "医疗保健服务;急救中心;急救中心",
                "location": {
                    "w": 35.296386,
                    "r": 113.86454500000002,
                    "lng": 113.864545,
                    "lat": 35.296386
                },
                "address": "解放大道中",
                "tel": "",
                "distance": null
            }, {
                "id": "B0FFF4T21H",
                "name": "新乡县中心医院",
                "type": "医疗保健服务;综合医院;综合医院",
                "location": {
                    "w": 35.163564,
                    "r": 113.80589199999997,
                    "lng": 113.805892,
                    "lat": 35.163564
                },
                "address": "第二人民医院附近",
                "tel": "",
                "distance": null
            }, {
                "id": "B0FFFGNQ5J",
                "name": "河南省新乡市中心医院(北门)",
                "type": "医疗保健服务;综合医院;三级甲等医院",
                "location": {
                    "w": 35.299091,
                    "r": 113.865565,
                    "lng": 113.865565,
                    "lat": 35.299091
                },
                "address": "健康路217附近",
                "tel": "",
                "distance": null
            }, {
                "id": "B0FFFGN7IQ",
                "name": "河南省新乡市中心医院(西门)",
                "type": "医疗保健服务;综合医院;三级甲等医院",
                "location": {
                    "w": 35.298157,
                    "r": 113.864553,
                    "lng": 113.864553,
                    "lat": 35.298157
                },
                "address": "解放大道(南)248附近",
                "tel": "",
                "distance": null
            }, {
                "id": "BV10450458",
                "name": "新乡县中心医院(公交站)",
                "type": "交通设施服务;公交车站;公交车站相关",
                "location": {
                    "w": 35.164314,
                    "r": 113.805748,
                    "lng": 113.805748,
                    "lat": 35.164314
                },
                "address": "182路;190路",
                "tel": "",
                "distance": null
            }, {
                "id": "B017500ZMQ",
                "name": "河南省新乡市中心医院停车场",
                "type": "交通设施服务;停车场;公共停车场",
                "location": {
                    "w": 35.296254,
                    "r": 113.86505799999998,
                    "lng": 113.865058,
                    "lat": 35.296254
                },
                "address": "金穗大道43号",
                "tel": "",
                "distance": null
            }, {
                "id": "B0FFF4L19O",
                "name": "新乡县中心医院急诊科",
                "type": "医疗保健服务;医疗保健服务场所;医疗保健服务场所",
                "location": {
                    "w": 35.163676,
                    "r": 113.80543,
                    "lng": 113.80543,
                    "lat": 35.163676
                },
                "address": "",
                "tel": "0373-5600120",
                "distance": null
            }, {
                "id": "B0FFFGN3GX",
                "name": "新乡市中心医院东院",
                "type": "医疗保健服务;综合医院;三级甲等医院",
                "location": {
                    "w": 35.296577,
                    "r": 113.86659199999997,
                    "lng": 113.866592,
                    "lat": 35.296577
                },
                "address": "金穗大道(中)56附近",
                "tel": "",
                "distance": null
            }]
        }, {
            "id": 18506,
            "status": 1,
            "name": "新乡县客运站",
            "slug": "xinxiangxiankeyunzhan",
            "type": 8,
            "poi": [{
                "id": "B017501HNQ",
                "name": "新乡县客运站",
                "type": "交通设施服务;长途汽车站;长途汽车站",
                "location": {
                    "w": 35.190594,
                    "r": 113.78640200000001,
                    "lng": 113.786402,
                    "lat": 35.190594
                },
                "address": "青年路306附近",
                "tel": "",
                "distance": null
            }, {
                "id": "B0FFG7A5IB",
                "name": "停车场(青年路)",
                "type": "交通设施服务;停车场;公共停车场",
                "location": {
                    "w": 35.190738,
                    "r": 113.78688799999998,
                    "lng": 113.786888,
                    "lat": 35.190738
                },
                "address": "青年路306新乡县客运站附近",
                "tel": "",
                "distance": null
            }, {
                "id": "B0FFFVAFCU",
                "name": "宋记快餐",
                "type": "餐饮服务;中餐厅;中餐厅",
                "location": {
                    "w": 35.190575,
                    "r": 113.78693499999997,
                    "lng": 113.786935,
                    "lat": 35.190575
                },
                "address": "青年路306新乡县客运站附近",
                "tel": "",
                "distance": null
            }, {
                "id": "B0FFFV8754",
                "name": "V-mai男装时尚馆",
                "type": "购物服务;服装鞋帽皮具店;服装鞋帽皮具店",
                "location": {
                    "w": 35.190566,
                    "r": 113.78689199999997,
                    "lng": 113.786892,
                    "lat": 35.190566
                },
                "address": "青年路306新乡县客运站附近",
                "tel": "",
                "distance": null
            }, {
                "id": "B0FFG2HMNH",
                "name": "金城电动车",
                "type": "购物服务;购物相关场所;购物相关场所",
                "location": {
                    "w": 35.190655,
                    "r": 113.78661999999997,
                    "lng": 113.78662,
                    "lat": 35.190655
                },
                "address": "青年路306新乡县客运站附近",
                "tel": "",
                "distance": null
            }]
        }, {
            "id": 25572,
            "status": 1,
            "name": "新乡市第一人民医院",
            "slug": "xinxiangshidiyirenminyiyuan",
            "type": 5,
            "poi": [{
                "id": "B017500AB3",
                "name": "新乡市第一人民医院",
                "type": "医疗保健服务;综合医院;综合医院",
                "location": {
                    "w": 35.306967,
                    "r": 113.86867899999999,
                    "lng": 113.868679,
                    "lat": 35.306967
                },
                "address": "一横街63号",
                "tel": "0373-2040120;0373-3665183",
                "distance": null
            }, {
                "id": "B01750NWUI",
                "name": "新乡市第一人民医院-急诊",
                "type": "医疗保健服务;医疗保健服务场所;医疗保健服务场所",
                "location": {
                    "w": 35.306929,
                    "r": 113.86815999999999,
                    "lng": 113.86816,
                    "lat": 35.306929
                },
                "address": "一横街63号",
                "tel": "",
                "distance": null
            }, {
                "id": "B0FFFGNO4D",
                "name": "新乡市第一人民医院(东门)",
                "type": "医疗保健服务;综合医院;综合医院",
                "location": {
                    "w": 35.306921,
                    "r": 113.86909700000001,
                    "lng": 113.869097,
                    "lat": 35.306921
                },
                "address": "一横街63号",
                "tel": "",
                "distance": null
            }, {
                "id": "B0FFG6PJ2A",
                "name": "新乡市第一人民医院(东1门)",
                "type": "医疗保健服务;综合医院;综合医院",
                "location": {
                    "w": 35.307383,
                    "r": 113.86908199999999,
                    "lng": 113.869082,
                    "lat": 35.307383
                },
                "address": "一横街61附近",
                "tel": "",
                "distance": null
            }, {
                "id": "B0FFF2Y0KZ",
                "name": "新乡市第一人民医院-门诊大楼",
                "type": "医疗保健服务;综合医院;综合医院",
                "location": {
                    "w": 35.307346,
                    "r": 113.86784999999998,
                    "lng": 113.86785,
                    "lat": 35.307346
                },
                "address": "一横街63号",
                "tel": "",
                "distance": null
            }, {
                "id": "B01750OKXY",
                "name": "新乡市第一人民医院-体检中心",
                "type": "医疗保健服务;综合医院;综合医院",
                "location": {
                    "w": 35.306602,
                    "r": 113.869595,
                    "lng": 113.869595,
                    "lat": 35.306602
                },
                "address": "一横街63号",
                "tel": "0373-2021358",
                "distance": null
            }, {
                "id": "B01750NWTF",
                "name": "新乡市第一人民医院-康复室",
                "type": "医疗保健服务;医疗保健服务场所;医疗保健服务场所",
                "location": {
                    "w": 35.307931,
                    "r": 113.8689,
                    "lng": 113.8689,
                    "lat": 35.307931
                },
                "address": "一横街57附近",
                "tel": "",
                "distance": null
            }, {
                "id": "B01750NWP7",
                "name": "新乡市第一人民医院-急救中心",
                "type": "医疗保健服务;急救中心;急救中心",
                "location": {
                    "w": 35.30693,
                    "r": 113.86815999999999,
                    "lng": 113.86816,
                    "lat": 35.30693
                },
                "address": "一横街63号",
                "tel": "",
                "distance": null
            }, {
                "id": "B01750NWPO",
                "name": "新乡市第一人民医院-外科楼",
                "type": "医疗保健服务;综合医院;综合医院",
                "location": {
                    "w": 35.30693,
                    "r": 113.86815999999999,
                    "lng": 113.86816,
                    "lat": 35.30693
                },
                "address": "一横街63附近",
                "tel": "",
                "distance": null
            }, {
                "id": "B0175021BK",
                "name": "新乡市第一人民医院中南门诊",
                "type": "医疗保健服务;诊所;诊所",
                "location": {
                    "w": 35.305743,
                    "r": 113.85546899999997,
                    "lng": 113.855469,
                    "lat": 35.305743
                },
                "address": "中同南街",
                "tel": "15936596179",
                "distance": null
            }]
        }, {
            "id": 18507,
            "status": 1,
            "name": "新乡县人民医院",
            "slug": "xinxiangxianrenminyiyuan",
            "type": 5,
            "poi": [{
                "id": "B0175011G3",
                "name": "新乡县人民医院(福星小区西)",
                "type": "医疗保健服务;综合医院;综合医院",
                "location": {
                    "w": 35.194294,
                    "r": 113.77595400000001,
                    "lng": 113.775954,
                    "lat": 35.194294
                },
                "address": "小吉乡",
                "tel": "0373-5592002;0373-5590120",
                "distance": null
            }, {
                "id": "B017501L0L",
                "name": "新乡县人民医院-门诊部",
                "type": "医疗保健服务;医疗保健服务场所;医疗保健服务场所",
                "location": {
                    "w": 35.194035,
                    "r": 113.77576399999998,
                    "lng": 113.775764,
                    "lat": 35.194035
                },
                "address": "冀中路46号",
                "tel": "",
                "distance": null
            }, {
                "id": "B01750NIE9",
                "name": "新乡县人民医院(南门)",
                "type": "医疗保健服务;综合医院;综合医院",
                "location": {
                    "w": 35.193882,
                    "r": 113.775759,
                    "lng": 113.775759,
                    "lat": 35.193882
                },
                "address": "小冀镇冀中路",
                "tel": "0373-5592002",
                "distance": null
            }, {
                "id": "B01750NIM3",
                "name": "新乡县人民医院(东门)",
                "type": "医疗保健服务;综合医院;综合医院",
                "location": {
                    "w": 35.194667,
                    "r": 113.77623499999999,
                    "lng": 113.776235,
                    "lat": 35.194667
                },
                "address": "冀中路46号",
                "tel": "",
                "distance": null
            }, {
                "id": "B01750NWOH",
                "name": "新乡县人民医院-住院部",
                "type": "医疗保健服务;医疗保健服务场所;医疗保健服务场所",
                "location": {
                    "w": 35.194607,
                    "r": 113.77539000000002,
                    "lng": 113.77539,
                    "lat": 35.194607
                },
                "address": "冀中路附近",
                "tel": "",
                "distance": null
            }, {
                "id": "B0FFF5MS94",
                "name": "新乡县人民医院-急诊科",
                "type": "医疗保健服务;医疗保健服务场所;医疗保健服务场所",
                "location": {
                    "w": 35.194044,
                    "r": 113.77521999999999,
                    "lng": 113.77522,
                    "lat": 35.194044
                },
                "address": "青龙路附近",
                "tel": "0373-5590120",
                "distance": null
            }, {
                "id": "B01750NWS7",
                "name": "新乡县人民医院-儿科",
                "type": "医疗保健服务;医疗保健服务场所;医疗保健服务场所",
                "location": {
                    "w": 35.194044,
                    "r": 113.77521999999999,
                    "lng": 113.77522,
                    "lat": 35.194044
                },
                "address": "青龙路附近",
                "tel": "",
                "distance": null
            }, {
                "id": "B01750NWRP",
                "name": "新乡县人民医院-骨科",
                "type": "医疗保健服务;医疗保健服务场所;医疗保健服务场所",
                "location": {
                    "w": 35.194607,
                    "r": 113.77539000000002,
                    "lng": 113.77539,
                    "lat": 35.194607
                },
                "address": "冀中路附近",
                "tel": "",
                "distance": null
            }, {
                "id": "B01750NWUB",
                "name": "新乡县人民医院-外科",
                "type": "医疗保健服务;医疗保健服务场所;医疗保健服务场所",
                "location": {
                    "w": 35.194607,
                    "r": 113.77539000000002,
                    "lng": 113.77539,
                    "lat": 35.194607
                },
                "address": "冀中路附近",
                "tel": "",
                "distance": null
            }, {
                "id": "B01750NWQ8",
                "name": "新乡县人民医院-妇产科",
                "type": "医疗保健服务;医疗保健服务场所;医疗保健服务场所",
                "location": {
                    "w": 35.194607,
                    "r": 113.77539000000002,
                    "lng": 113.77539,
                    "lat": 35.194607
                },
                "address": "冀中路附近",
                "tel": "",
                "distance": null
            }]
        }, {
            "id": 25571,
            "status": 1,
            "name": "河南省精神病医院",
            "slug": "henanshengjingshenbingyiyuan",
            "type": 5,
            "poi": [{
                "id": "B0FFF2CMIN",
                "name": "河南省精神病医院-门诊",
                "type": "医疗保健服务;医疗保健服务场所;医疗保健服务场所",
                "location": {
                    "w": 35.325954,
                    "r": 113.89704,
                    "lng": 113.89704,
                    "lat": 35.325954
                },
                "address": "建设中路388附近",
                "tel": "",
                "distance": null
            }, {
                "id": "B01750O7H3",
                "name": "河南省精神卫生中心",
                "type": "医疗保健服务;专科医院;精神病医院",
                "location": {
                    "w": 35.329174,
                    "r": 113.89675499999998,
                    "lng": 113.896755,
                    "lat": 35.329174
                },
                "address": "前进路187附近",
                "tel": "",
                "distance": null
            }, {
                "id": "B0FFF8XB0E",
                "name": "河南省心理咨询中心",
                "type": "医疗保健服务;诊所;诊所",
                "location": {
                    "w": 35.325954,
                    "r": 113.89704,
                    "lng": 113.89704,
                    "lat": 35.325954
                },
                "address": "建设中路388号河南省精神病医院附近",
                "tel": "",
                "distance": null
            }, {
                "id": "B0175020FB",
                "name": "辉丽平价超市",
                "type": "购物服务;便民商店/便利店;便民商店/便利店",
                "location": {
                    "w": 35.325084,
                    "r": 113.89761799999997,
                    "lng": 113.897618,
                    "lat": 35.325084
                },
                "address": "新乡医学院第二附属医院附近",
                "tel": "0373-5837908",
                "distance": null
            }, {
                "id": "B0175020FC",
                "name": "鹭艺批发超市",
                "type": "购物服务;便民商店/便利店;便民商店/便利店",
                "location": {
                    "w": 35.324831,
                    "r": 113.898255,
                    "lng": 113.898255,
                    "lat": 35.324831
                },
                "address": "新乡医学院第二附属医院附近",
                "tel": "13937378237;13782537534",
                "distance": null
            }, {
                "id": "B0FFFX5Z5O",
                "name": "健康川味面馆",
                "type": "餐饮服务;快餐厅;快餐厅",
                "location": {
                    "w": 35.319473,
                    "r": 113.90093999999999,
                    "lng": 113.90094,
                    "lat": 35.319473
                },
                "address": "建设路与新飞大道路口(近新乡医学院第二附属医院)",
                "tel": "",
                "distance": null
            }, {
                "id": "B0FFFGNMCY",
                "name": "幸福宾馆(茹岗北三巷)",
                "type": "住宿服务;宾馆酒店;宾馆酒店",
                "location": {
                    "w": 35.324064,
                    "r": 113.89862199999999,
                    "lng": 113.898622,
                    "lat": 35.324064
                },
                "address": "建设路精神病医院",
                "tel": "0373-2169226",
                "distance": null
            }, {
                "id": "B0FFFGN6UM",
                "name": "兴盛旅馆(茹岗北四巷)",
                "type": "住宿服务;旅馆招待所;旅馆招待所",
                "location": {
                    "w": 35.325157,
                    "r": 113.89709800000003,
                    "lng": 113.897098,
                    "lat": 35.325157
                },
                "address": "建设路精神病医院对面",
                "tel": "",
                "distance": null
            }, {
                "id": "B01750NY5Z",
                "name": "新乡医学高等专科学校第二附属医院",
                "type": "医疗保健服务;医疗保健服务场所;医疗保健服务场所",
                "location": {
                    "w": 35.306759,
                    "r": 113.86282,
                    "lng": 113.86282,
                    "lat": 35.306759
                },
                "address": "自由街136号",
                "tel": "0373-2124027",
                "distance": null
            }, {
                "id": "B0FFG2E6N2",
                "name": "河南伽马信息技术有限公司",
                "type": "公司企业;公司企业;公司企业",
                "location": {
                    "w": 35.280571,
                    "r": 113.92800699999998,
                    "lng": 113.928007,
                    "lat": 35.280571
                },
                "address": "东二环与纺织路西北角(新乡医学院第三附属医院旁)",
                "tel": "18937309500",
                "distance": null
            }]
        }, {
            "id": 18508,
            "status": 1,
            "name": "新阳光购物广场",
            "slug": "xinyangguanggouwuguangchang",
            "type": 6,
            "poi": [{
                "id": "B01750ORHQ",
                "name": "新阳光购物广场",
                "type": "购物服务;商场;购物中心",
                "location": {
                    "w": 35.192675,
                    "r": 113.789961,
                    "lng": 113.789961,
                    "lat": 35.192675
                },
                "address": "小冀镇金谷广场",
                "tel": "0373-5597779",
                "distance": null
            }, {
                "id": "B0FFFSZZL6",
                "name": "新阳光购物广场",
                "type": "购物服务;商场;普通商场",
                "location": {
                    "w": 35.040425,
                    "r": 114.42280399999999,
                    "lng": 114.422804,
                    "lat": 35.040425
                },
                "address": "黄池路(近华莱士)",
                "tel": "",
                "distance": null
            }, {
                "id": "B01750OCS3",
                "name": "新阳光生活广场",
                "type": "购物服务;超级市场;超市",
                "location": {
                    "w": 35.044337,
                    "r": 114.426312,
                    "lng": 114.426312,
                    "lat": 35.044337
                },
                "address": "北干道",
                "tel": "",
                "distance": null
            }, {
                "id": "B01750NW7E",
                "name": "德克士(新阳光店)",
                "type": "餐饮服务;快餐厅;快餐厅",
                "location": {
                    "w": 35.041252,
                    "r": 114.42253,
                    "lng": 114.42253,
                    "lat": 35.041252
                },
                "address": "黄池路中段新阳光购物广场北侧",
                "tel": "0373-8299550",
                "distance": null
            }, {
                "id": "B0FFFU8NXY",
                "name": "阳光茶坊",
                "type": "餐饮服务;茶艺馆;茶艺馆",
                "location": {
                    "w": 35.040389,
                    "r": 114.42272500000001,
                    "lng": 114.422725,
                    "lat": 35.040389
                },
                "address": "城关镇黄池路中段新阳光购物广场",
                "tel": "",
                "distance": null
            }, {
                "id": "B0FFFP429R",
                "name": "乡阳光招待所",
                "type": "住宿服务;旅馆招待所;旅馆招待所",
                "location": {
                    "w": 35.191456,
                    "r": 113.79113000000001,
                    "lng": 113.79113,
                    "lat": 35.191456
                },
                "address": "冀中路中段68号(新阳光购物广场对面)",
                "tel": "0373-5570038;13613739928",
                "distance": null
            }, {
                "id": "B0FFFALUJX",
                "name": "熺源酸辣粉",
                "type": "餐饮服务;中餐厅;中餐厅",
                "location": {
                    "w": 35.1914,
                    "r": 113.79028,
                    "lng": 113.79028,
                    "lat": 35.1914
                },
                "address": "冀中路新阳光购物广场对面",
                "tel": "13525073633",
                "distance": null
            }, {
                "id": "B0FFFX43WW",
                "name": "甜妞的店",
                "type": "生活服务;生活服务场所;生活服务场所",
                "location": {
                    "w": 35.191493,
                    "r": 113.790324,
                    "lng": 113.790324,
                    "lat": 35.191493
                },
                "address": "冀中路新阳光购物广场对面",
                "tel": "13525012994",
                "distance": null
            }, {
                "id": "B0FFFSZ32G",
                "name": "七若滋",
                "type": "餐饮服务;糕饼店;糕饼店",
                "location": {
                    "w": 35.040051,
                    "r": 114.42231200000003,
                    "lng": 114.422312,
                    "lat": 35.040051
                },
                "address": "黄池路新阳光购物广场斜对面",
                "tel": "0373-8283969",
                "distance": null
            }, {
                "id": "B0FFFAF5VX",
                "name": "清宴(新乡分店)",
                "type": "餐饮服务;中餐厅;中餐厅",
                "location": {
                    "w": 35.19218,
                    "r": 113.79174999999998,
                    "lng": 113.79175,
                    "lat": 35.19218
                },
                "address": "小冀镇小冀新阳光购物广场向东100米路北",
                "tel": "18937352153",
                "distance": null
            }]
        }, {
            "id": 18561,
            "status": 1,
            "name": "长垣县中医院",
            "slug": "zhangyuanxianzhongyiyuan",
            "type": 5,
            "poi": [{
                "id": "B0175014CI",
                "name": "长垣中医院(长城大道)",
                "type": "医疗保健服务;综合医院;综合医院",
                "location": {
                    "w": 35.20114,
                    "r": 114.706796,
                    "lng": 114.706796,
                    "lat": 35.20114
                },
                "address": "长城大道220号",
                "tel": "",
                "distance": null
            }, {
                "id": "B01750NWRG",
                "name": "长垣县中医院-急诊",
                "type": "医疗保健服务;医疗保健服务场所;医疗保健服务场所",
                "location": {
                    "w": 35.201054,
                    "r": 114.70670000000001,
                    "lng": 114.7067,
                    "lat": 35.201054
                },
                "address": "长城大道东段220长垣县中医院",
                "tel": "",
                "distance": null
            }, {
                "id": "B0FFF4HN2Y",
                "name": "长垣县中医院-住院部",
                "type": "医疗保健服务;医疗保健服务场所;医疗保健服务场所",
                "location": {
                    "w": 35.200199,
                    "r": 114.70661000000001,
                    "lng": 114.70661,
                    "lat": 35.200199
                },
                "address": "温州路附近",
                "tel": "",
                "distance": null
            }, {
                "id": "B0FFFRFNNR",
                "name": "长垣县中医院分院",
                "type": "医疗保健服务;综合医院;综合医院",
                "location": {
                    "w": 35.1933,
                    "r": 114.710689,
                    "lng": 114.710689,
                    "lat": 35.1933
                },
                "address": "伯玉路长垣县医疗纠纷人民调解委员会附近",
                "tel": "",
                "distance": null
            }, {
                "id": "B0FFF3WK3P",
                "name": "长垣县中医院-放射科",
                "type": "医疗保健服务;医疗保健服务场所;医疗保健服务场所",
                "location": {
                    "w": 35.200587,
                    "r": 114.70751999999999,
                    "lng": 114.70752,
                    "lat": 35.200587
                },
                "address": "长城大道附近",
                "tel": "",
                "distance": null
            }, {
                "id": "B0FFF4MT5U",
                "name": "长垣县中医院-CT室",
                "type": "医疗保健服务;医疗保健服务场所;医疗保健服务场所",
                "location": {
                    "w": 35.200228,
                    "r": 114.70727,
                    "lng": 114.70727,
                    "lat": 35.200228
                },
                "address": "长城大道附近",
                "tel": "",
                "distance": null
            }, {
                "id": "B017500AC4",
                "name": "长垣县人民医院",
                "type": "医疗保健服务;综合医院;综合医院",
                "location": {
                    "w": 35.205151,
                    "r": 114.67992900000002,
                    "lng": 114.679929,
                    "lat": 35.205151
                },
                "address": "长城大道中段",
                "tel": "0373-8877388;13837380861;0373-8861388",
                "distance": null
            }, {
                "id": "B0FFG2E0BJ",
                "name": "长垣县人民医院儿科",
                "type": "医疗保健服务;综合医院;综合医院",
                "location": {
                    "w": 35.205482,
                    "r": 114.67971,
                    "lng": 114.67971,
                    "lat": 35.205482
                },
                "address": "长城大道中段长垣县人民医院附近",
                "tel": "",
                "distance": null
            }, {
                "id": "B0175012ZP",
                "name": "长垣县医药公司康垣(第五药店)",
                "type": "医疗保健服务;医药保健销售店;药房",
                "location": {
                    "w": 35.195608,
                    "r": 114.70125300000001,
                    "lng": 114.701253,
                    "lat": 35.195608
                },
                "address": "东大街县中医院对面",
                "tel": "0373-8861332;13937373969",
                "distance": null
            }, {
                "id": "B0FFF45FDP",
                "name": "长垣县健康体检中心",
                "type": "医疗保健服务;医疗保健服务场所;医疗保健服务场所",
                "location": {
                    "w": 35.194887,
                    "r": 114.66962000000001,
                    "lng": 114.66962,
                    "lat": 35.194887
                },
                "address": "宏力大道南段16号",
                "tel": "",
                "distance": null
            }]
        }, {
            "id": 18510,
            "status": 1,
            "name": "同惠商厦",
            "slug": "tonghuishangsha",
            "type": 6,
            "poi": [{
                "id": "B017501G2Z",
                "name": "同惠商厦",
                "type": "购物服务;商场;商场",
                "location": {
                    "w": 35.189167,
                    "r": 113.77547500000003,
                    "lng": 113.775475,
                    "lat": 35.189167
                },
                "address": "冀中路120附近",
                "tel": "",
                "distance": null
            }, {
                "id": "B0FFG2POSM",
                "name": "韩格子",
                "type": "购物服务;服装鞋帽皮具店;服装鞋帽皮具店",
                "location": {
                    "w": 35.188909,
                    "r": 113.77526699999999,
                    "lng": 113.775267,
                    "lat": 35.188909
                },
                "address": "冀中路120同惠商厦附近",
                "tel": "",
                "distance": null
            }]
        }, {
            "id": 18562,
            "status": 1,
            "name": "长垣妇幼保健院",
            "slug": "zhangyuanfuyoubaojianyuan",
            "type": 5,
            "poi": [{
                "id": "B017501AKH",
                "name": "长垣县妇幼保健院",
                "type": "医疗保健服务;专科医院;专科医院",
                "location": {
                    "w": 35.199727,
                    "r": 114.69655999999998,
                    "lng": 114.69656,
                    "lat": 35.199727
                },
                "address": "观前街84号(近老鳖坑南面)",
                "tel": "0373-8879512;0373-8879120",
                "distance": null
            }]
        }, {
            "id": 18547,
            "status": 1,
            "name": "长垣县人民医院",
            "slug": "zhangyuanxianrenminyiyuan",
            "type": 5,
            "poi": [{
                "id": "B017500AC4",
                "name": "长垣县人民医院",
                "type": "医疗保健服务;综合医院;综合医院",
                "location": {
                    "w": 35.205151,
                    "r": 114.67992900000002,
                    "lng": 114.679929,
                    "lat": 35.205151
                },
                "address": "长城大道中段",
                "tel": "0373-8877388;13837380861;0373-8861388",
                "distance": null
            }, {
                "id": "B0FFF4DOQI",
                "name": "长垣县人民医院住院部",
                "type": "医疗保健服务;医疗保健服务场所;医疗保健服务场所",
                "location": {
                    "w": 35.206504,
                    "r": 114.67957000000001,
                    "lng": 114.67957,
                    "lat": 35.206504
                },
                "address": "长城大道57附近",
                "tel": "",
                "distance": null
            }, {
                "id": "B0FFG22MEG",
                "name": "长垣县人民医院魏庄分院",
                "type": "医疗保健服务;医疗保健服务场所;医疗保健服务场所",
                "location": {
                    "w": 35.127584,
                    "r": 114.730954,
                    "lng": 114.730954,
                    "lat": 35.127584
                },
                "address": "直辖长垣县阳泽路东段路南",
                "tel": "0373-8892402",
                "distance": null
            }, {
                "id": "B01750NWQC",
                "name": "长垣县人民医院-综合门诊楼",
                "type": "医疗保健服务;综合医院;综合医院",
                "location": {
                    "w": 35.205482,
                    "r": 114.67971,
                    "lng": 114.67971,
                    "lat": 35.205482
                },
                "address": "人民医院",
                "tel": "",
                "distance": null
            }, {
                "id": "B0FFG2E0BJ",
                "name": "长垣县人民医院儿科",
                "type": "医疗保健服务;综合医院;综合医院",
                "location": {
                    "w": 35.205482,
                    "r": 114.67971,
                    "lng": 114.67971,
                    "lat": 35.205482
                },
                "address": "长城大道中段长垣县人民医院附近",
                "tel": "",
                "distance": null
            },