{
    "data": {
        "subareasinfo": [],
        "areasinfo": [{
            "id": 7569,
            "area": 0,
            "subareas": [],
            "name": "沁园街道",
            "slug": "qinyuanjiedao",
            "type": 0,
            "district": 0,
            "city": 249,
            "poi": [{
                "id": "B0FFFDAV1V",
                "name": "沁园街道",
                "type": "地名地址信息;普通地名;街道级地名",
                "location": {
                    "w": 35.084732,
                    "r": 112.94053200000002,
                    "lng": 112.940532,
                    "lat": 35.084732
                },
                "address": "",
                "tel": "",
                "distance": null
            }, {
                "id": "B018700VOR",
                "name": "沁园",
                "type": "风景名胜;公园广场;公园",
                "location": {
                    "w": 35.089047,
                    "r": 112.92587300000002,
                    "lng": 112.925873,
                    "lat": 35.089047
                },
                "address": "沁园街道沁园南路3号",
                "tel": "",
                "distance": null
            }, {
                "id": "B018700VVA",
                "name": "骆豪男装(步行街)",
                "type": "购物服务;服装鞋帽皮具店;品牌服装店",
                "location": {
                    "w": 35.087484,
                    "r": 112.93769900000001,
                    "lng": 112.937699,
                    "lat": 35.087484
                },
                "address": "沁园街道步行街",
                "tel": "",
                "distance": null
            }, {
                "id": "B018700VWM",
                "name": "姣莹内衣专卖店(步行街)",
                "type": "购物服务;服装鞋帽皮具店;服装鞋帽皮具店",
                "location": {
                    "w": 35.08589,
                    "r": 112.93778299999997,
                    "lng": 112.937783,
                    "lat": 35.08589
                },
                "address": "沁园街道步行街",
                "tel": "",
                "distance": null
            }, {
                "id": "B018700YQN",
                "name": "名门(步行街店)",
                "type": "购物服务;服装鞋帽皮具店;服装鞋帽皮具店",
                "location": {
                    "w": 35.086127,
                    "r": 112.93784499999998,
                    "lng": 112.937845,
                    "lat": 35.086127
                },
                "address": "沁园街道步行街",
                "tel": "",
                "distance": null
            }, {
                "id": "B018700VV5",
                "name": "飞克运动(步行街)",
                "type": "购物服务;体育用品店;体育用品店",
                "location": {
                    "w": 35.087762,
                    "r": 112.93776300000002,
                    "lng": 112.937763,
                    "lat": 35.087762
                },
                "address": "沁园街道步行街",
                "tel": "",
                "distance": null
            }, {
                "id": "B018700VX3",
                "name": "内衣秀(联盟街铸巷)",
                "type": "购物服务;服装鞋帽皮具店;服装鞋帽皮具店",
                "location": {
                    "w": 35.086659,
                    "r": 112.93796299999997,
                    "lng": 112.937963,
                    "lat": 35.086659
                },
                "address": "沁园街道步行街",
                "tel": "",
                "distance": null
            }, {
                "id": "B018700VV1",
                "name": "金威世家(步行街)",
                "type": "购物服务;服装鞋帽皮具店;服装鞋帽皮具店",
                "location": {
                    "w": 35.087976,
                    "r": 112.93781100000001,
                    "lng": 112.937811,
                    "lat": 35.087976
                },
                "address": "沁园街道步行街",
                "tel": "",
                "distance": null
            }, {
                "id": "B018700VVD",
                "name": "拓谷(步行街)",
                "type": "购物服务;服装鞋帽皮具店;服装鞋帽皮具店",
                "location": {
                    "w": 35.087323,
                    "r": 112.93766700000003,
                    "lng": 112.937667,
                    "lat": 35.087323
                },
                "address": "沁园街道步行街",
                "tel": "",
                "distance": null
            }, {
                "id": "B018700VVC",
                "name": "路易维斯品牌服饰折扣店(步行街)",
                "type": "购物服务;服装鞋帽皮具店;服装鞋帽皮具店",
                "location": {
                    "w": 35.087372,
                    "r": 112.937679,
                    "lng": 112.937679,
                    "lat": 35.087372
                },
                "address": "沁园街道步行街",
                "tel": "",
                "distance": null
            }]
        }, {
            "id": 12400,
            "area": 0,
            "subareas": [],
            "name": "信尧城市广场",
            "slug": "xinyao",
            "type": 0,
            "district": 0,
            "city": 249,
            "poi": [{
                "id": "B056F0M0O1",
                "name": "横店影城(信尧店)",
                "type": "体育休闲服务;影剧院;电影院",
                "location": {
                    "w": 35.087735,
                    "r": 112.57286999999997,
                    "lng": 112.57287,
                    "lat": 35.087735
                },
                "address": "天坛路信尧城市广场4层",
                "tel": "0391-6277999",
                "distance": null
            }, {
                "id": "B0FFG651YA",
                "name": "屈臣氏(河南济源济水信尧城市广场店)",
                "type": "购物服务;超级市场;屈臣氏",
                "location": {
                    "w": 35.088488,
                    "r": 112.572923,
                    "lng": 112.572923,
                    "lat": 35.088488
                },
                "address": "济源天坛路与周园路交叉口信尧城市广场1层",
                "tel": "",
                "distance": null
            }, {
                "id": "B0FFF6RW6F",
                "name": "江南私厨茶餐厅",
                "type": "餐饮服务;快餐厅;茶餐厅",
                "location": {
                    "w": 35.088769,
                    "r": 112.572946,
                    "lng": 112.572946,
                    "lat": 35.088769
                },
                "address": "信尧城市广场北面",
                "tel": "0391-5501688",
                "distance": null
            }, {
                "id": "B0FFF636PM",
                "name": "巫山烤鱼(城市广场店)",
                "type": "餐饮服务;餐饮相关场所;餐饮相关",
                "location": {
                    "w": 35.087747,
                    "r": 112.57235500000002,
                    "lng": 112.572355,
                    "lat": 35.087747
                },
                "address": "天坛路信尧城市广场4楼巫山烤鱼",
                "tel": "18066628031",
                "distance": null
            }, {
                "id": "B0FFFTEGLJ",
                "name": "德克士(信尧店)",
                "type": "餐饮服务;快餐厅;快餐厅",
                "location": {
                    "w": 35.088716,
                    "r": 112.57294100000001,
                    "lng": 112.572941,
                    "lat": 35.088716
                },
                "address": "天坛路与周园路交叉口信尧城市广场1楼",
                "tel": "0391-6623111",
                "distance": null
            }, {
                "id": "B0FFF9MZEN",
                "name": "5D动态影院",
                "type": "体育休闲服务;影剧院;电影院",
                "location": {
                    "w": 35.087788,
                    "r": 112.57280000000003,
                    "lng": 112.5728,
                    "lat": 35.087788
                },
                "address": "天坛路信尧城市广场4楼",
                "tel": "15670821822",
                "distance": null
            }, {
                "id": "B0FFF5ZQ5F",
                "name": "可C可D果蔬氧吧",
                "type": "餐饮服务;冷饮店;冷饮店",
                "location": {
                    "w": 35.08742,
                    "r": 112.57362,
                    "lng": 112.57362,
                    "lat": 35.08742
                },
                "address": "信尧城市广场4楼(横店影城对面)",
                "tel": "13346788684",
                "distance": null
            }, {
                "id": "B0FFF65LW3",
                "name": "鑫釜轩",
                "type": "餐饮服务;中餐厅;特色/地方风味餐厅",
                "location": {
                    "w": 35.087654,
                    "r": 112.57258000000002,
                    "lng": 112.57258,
                    "lat": 35.087654
                },
                "address": "天坛路西关信尧城市广场4楼",
                "tel": "0391-5501234",
                "distance": null
            }, {
                "id": "B0FFG6R935",
                "name": "尚体国际健身俱乐部",
                "type": "体育休闲服务;运动场馆;健身中心",
                "location": {
                    "w": 35.088236,
                    "r": 112.57261499999998,
                    "lng": 112.572615,
                    "lat": 35.088236
                },
                "address": "天坛路609信尧城市广场4层",
                "tel": "0391-6267778;0391-6297778",
                "distance": null
            }, {
                "id": "B0FFFP6I4P",
                "name": "视宴3D艺术",
                "type": "购物服务;购物相关场所;购物相关场所",
                "location": {
                    "w": 35.087837,
                    "r": 112.57299,
                    "lng": 112.57299,
                    "lat": 35.087837
                },
                "address": "信尧城市广场4楼游艺场北邻",
                "tel": "13343611010",
                "distance": null
            }]
        }, {
            "id": 12401,
            "area": 0,
            "subareas": [],
            "name": "大商新世纪广场",
            "slug": "dsxsj",
            "type": 0,
            "district": 0,
            "city": 249
        }, {
            "id": 12402,
            "area": 0,
            "subareas": [],
            "name": "凯旋城",
            "slug": "kaixuan",
            "type": 0,
            "district": 0,
            "city": 249
        }, {
            "id": 12399,
            "area": 0,
            "subareas": [],
            "name": "源园广场",
            "slug": "yuanyuan",
            "type": 0,
            "district": 0,
            "city": 249
        }, {
            "id": 12398,
            "area": 0,
            "subareas": [],
            "name": "时代购物中心",
            "slug": "shidaigouw",
            "type": 0,
            "district": 0,
            "city": 249,
            "poi": [{
                "id": "B01870MW3S",
                "name": "时代广场",
                "type": "购物服务;商场;商场",
                "location": {
                    "w": 35.08957,
                    "r": 112.94677000000001,
                    "lng": 112.94677,
                    "lat": 35.08957
                },
                "address": "怀庆街道怀府中路",
                "tel": "",
                "distance": null
            }, {
                "id": "B01870N1ZJ",
                "name": "时代广场A区",
                "type": "购物服务;商场;商场",
                "location": {
                    "w": 35.089018,
                    "r": 112.94692600000002,
                    "lng": 112.946926,
                    "lat": 35.089018
                },
                "address": "时代广场T04-T05附近",
                "tel": "",
                "distance": null
            }, {
                "id": "B01870N1ZK",
                "name": "时代广场B区",
                "type": "购物服务;商场;商场",
                "location": {
                    "w": 35.089015,
                    "r": 112.94670100000002,
                    "lng": 112.946701,
                    "lat": 35.089015
                },
                "address": "时代广场T04-T05附近",
                "tel": "",
                "distance": null
            }, {
                "id": "B01870N1Y3",
                "name": "时代广场C区",
                "type": "购物服务;商场;商场",
                "location": {
                    "w": 35.089968,
                    "r": 112.946302,
                    "lng": 112.946302,
                    "lat": 35.089968
                },
                "address": "怀府中路",
                "tel": "",
                "distance": null
            }, {
                "id": "B01870N1ZT",
                "name": "时代广场D区",
                "type": "购物服务;商场;商场",
                "location": {
                    "w": 35.089956,
                    "r": 112.94732899999997,
                    "lng": 112.947329,
                    "lat": 35.089956
                },
                "address": "左营街7附近",
                "tel": "",
                "distance": null
            }, {
                "id": "B0FFFVNEFZ",
                "name": "战狼世家",
                "type": "购物服务;服装鞋帽皮具店;服装鞋帽皮具店",
                "location": {
                    "w": 35.088814,
                    "r": 112.94635,
                    "lng": 112.94635,
                    "lat": 35.088814
                },
                "address": "时代广场",
                "tel": "",
                "distance": null
            }, {
                "id": "B01870N14Q",
                "name": "情定法拉沁阳专卖店",
                "type": "购物服务;家居建材市场;家居建材市场",
                "location": {
                    "w": 35.08957,
                    "r": 112.94677000000001,
                    "lng": 112.94677,
                    "lat": 35.08957
                },
                "address": "时代广场",
                "tel": "0391-5600180",
                "distance": null
            }, {
                "id": "B0FFFVVOB5",
                "name": "三元电器",
                "type": "购物服务;家电电子卖场;家电电子卖场",
                "location": {
                    "w": 35.08878,
                    "r": 112.947296,
                    "lng": 112.947296,
                    "lat": 35.08878
                },
                "address": "时代广场对面",
                "tel": "",
                "distance": null
            }, {
                "id": "B0FFFVO414",
                "name": "小淋头饰",
                "type": "购物服务;专卖店;礼品饰品店",
                "location": {
                    "w": 35.088464,
                    "r": 112.94580500000001,
                    "lng": 112.945805,
                    "lat": 35.088464
                },
                "address": "时代广场对面",
                "tel": "",
                "distance": null
            }, {
                "id": "B01870N17A",
                "name": "依诗家",
                "type": "购物服务;购物相关场所;购物相关场所",
                "location": {
                    "w": 35.089528,
                    "r": 112.94649900000002,
                    "lng": 112.946499,
                    "lat": 35.089528
                },
                "address": "时代广场B区",
                "tel": "",
                "distance": null
            }]
        }]
    }
}
