{
    "data": {
        "landmarks": [{
            "id": 18910,
            "status": 1,
            "name": "醴陵市中医院",
            "slug": "lilingshizhongyiyuan",
            "type": 5,
            "poi": [{
                "id": "B02DD020HE",
                "name": "醴陵市中医院",
                "type": "医疗保健服务;综合医院;综合医院",
                "location": {
                    "w": 27.656472,
                    "r": 113.498671,
                    "lng": 113.498671,
                    "lat": 27.656472
                },
                "address": "解放路3号",
                "tel": "0731-23232318;0731-23238002",
                "distance": null
            }, {
                "id": "B0FFG2S5VH",
                "name": "醴陵市中医院(西北门)",
                "type": "医疗保健服务;综合医院;综合医院",
                "location": {
                    "w": 27.656658,
                    "r": 113.49844300000001,
                    "lng": 113.498443,
                    "lat": 27.656658
                },
                "address": "瓷城大道28附近",
                "tel": "",
                "distance": null
            }, {
                "id": "B02DD0QCT0",
                "name": "醴陵市中医院-急诊",
                "type": "医疗保健服务;急救中心;急救中心",
                "location": {
                    "w": 27.656627,
                    "r": 113.49835100000001,
                    "lng": 113.498351,
                    "lat": 27.656627
                },
                "address": "解放路3号",
                "tel": "",
                "distance": null
            }, {
                "id": "B0FFG0P4DC",
                "name": "醴陵市中医院一医院河西门诊部",
                "type": "医疗保健服务;综合医院;综合医院",
                "location": {
                    "w": 27.645824,
                    "r": 113.50045999999998,
                    "lng": 113.50046,
                    "lat": 27.645824
                },
                "address": "左权中路146号附近",
                "tel": "0731-23282660",
                "distance": null
            }, {
                "id": "B02DD0PUG4",
                "name": "阿依莲(姜湾上正街)",
                "type": "购物服务;服装鞋帽皮具店;服装鞋帽皮具店",
                "location": {
                    "w": 27.656994,
                    "r": 113.49886800000002,
                    "lng": 113.498868,
                    "lat": 27.656994
                },
                "address": "中心部(醴陵市中医院东北)",
                "tel": "",
                "distance": null
            }]
        }, {
            "id": 9426,
            "status": 1,
            "name": "云阳山景区",
            "slug": "yunyangshanjingqu",
            "type": 3,
            "poi": [{
                "id": "B02DD0PX3M",
                "name": "云阳山景区",
                "type": "风景名胜;风景名胜;国家级景点",
                "location": {
                    "w": 26.759273,
                    "r": 113.477375,
                    "lng": 113.477375,
                    "lat": 26.759273
                },
                "address": "城关镇十八丘",
                "tel": "0731-25262600",
                "distance": null
            }, {
                "id": "B02DD004F2",
                "name": "云阳山",
                "type": "地名地址信息;自然地名;山",
                "location": {
                    "w": 26.755311,
                    "r": 113.469402,
                    "lng": 113.469402,
                    "lat": 26.755311
                },
                "address": "",
                "tel": "",
                "distance": null
            }, {
                "id": "B02DD0PSOU",
                "name": "云阳山景区(东北门)",
                "type": "风景名胜;风景名胜;国家级景点",
                "location": {
                    "w": 26.797292,
                    "r": 113.513711,
                    "lng": 113.513711,
                    "lat": 26.797292
                },
                "address": "城关镇茶攸路云阳森林公园管理局附近",
                "tel": "",
                "distance": null
            }, {
                "id": "B02DD0PQA4",
                "name": "云阳山景区(西南门)",
                "type": "风景名胜;风景名胜;国家级景点",
                "location": {
                    "w": 26.778157,
                    "r": 113.50413100000003,
                    "lng": 113.504131,
                    "lat": 26.778157
                },
                "address": "赤松街附近",
                "tel": "",
                "distance": null
            }, {
                "id": "B02DD0PUIU",
                "name": "云阳山景区售票处",
                "type": "生活服务;售票处;公园景点售票处",
                "location": {
                    "w": 26.797196,
                    "r": 113.51345500000002,
                    "lng": 113.513455,
                    "lat": 26.797196
                },
                "address": "城关镇茶攸路云阳森林公园管理局附近",
                "tel": "",
                "distance": null
            }, {
                "id": "B02DD0PX3E",
                "name": "茶陵县云阳山景区管理局",
                "type": "政府机构及社会团体;社会团体;社会团体相关",
                "location": {
                    "w": 26.79727,
                    "r": 113.515333,
                    "lng": 113.515333,
                    "lat": 26.79727
                },
                "address": "城关镇茶攸路",
                "tel": "",
                "distance": null
            }, {
                "id": "B02DD01UND",
                "name": "云阳山下",
                "type": "地名地址信息;普通地名;村庄级地名",
                "location": {
                    "w": 26.775931,
                    "r": 113.51387399999999,
                    "lng": 113.513874,
                    "lat": 26.775931
                },
                "address": "",
                "tel": "",
                "distance": null
            }, {
                "id": "B0FFG2RTL5",
                "name": "云阳山泉",
                "type": "购物服务;专卖店;专营店",
                "location": {
                    "w": 26.788771,
                    "r": 113.541627,
                    "lng": 113.541627,
                    "lat": 26.788771
                },
                "address": "炎帝中路附近",
                "tel": "0731-25241194",
                "distance": null
            }, {
                "id": "B0FFF9W67S",
                "name": "云阳山隧道",
                "type": "地名地址信息;交通地名;隧道",
                "location": {
                    "w": 26.791564,
                    "r": 113.48774900000001,
                    "lng": 113.487749,
                    "lat": 26.791564
                },
                "address": "",
                "tel": "",
                "distance": null
            }, {
                "id": "B02DD0PTPW",
                "name": "云阳山旅游景区价格公共服务站",
                "type": "生活服务;生活服务场所;生活服务场所",
                "location": {
                    "w": 26.797196,
                    "r": 113.51345600000002,
                    "lng": 113.513456,
                    "lat": 26.797196
                },
                "address": "城关镇茶攸路茶陵县云阳森林公园管理局附近",
                "tel": "",
                "distance": null
            }]
        }, {
            "id": 18911,
            "status": 1,
            "name": "兆和医院",
            "slug": "zhaoheyiyuan",
            "type": 5
        }, {
            "id": 17982,
            "status": 1,
            "name": "湘运炎陵汽车站",
            "slug": "xiangyunyanlingqichezhan",
            "type": 8,
            "poi": [{
                "id": "B02DD0PSGP",
                "name": "湘运炎陵汽车站",
                "type": "交通设施服务;长途汽车站;长途汽车站",
                "location": {
                    "w": 26.482998,
                    "r": 113.776997,
                    "lng": 113.776997,
                    "lat": 26.482998
                },
                "address": "文化路57号",
                "tel": "",
                "distance": null
            }, {
                "id": "B0FFFZY0TZ",
                "name": "湘运炎陵汽车站(西南门)",
                "type": "交通设施服务;长途汽车站;长途汽车站",
                "location": {
                    "w": 26.482685,
                    "r": 113.77689599999997,
                    "lng": 113.776896,
                    "lat": 26.482685
                },
                "address": "文化路57附近",
                "tel": "",
                "distance": null
            }, {
                "id": "B02DD00D65",
                "name": "湘运炎陵汽车中心站",
                "type": "交通设施服务;长途汽车站;长途汽车站",
                "location": {
                    "w": 26.483492,
                    "r": 113.77641299999999,
                    "lng": 113.776413,
                    "lat": 26.483492
                },
                "address": "文化路52附近",
                "tel": "",
                "distance": null
            }, {
                "id": "B02DD0PSR9",
                "name": "湘运炎陵汽车中心站售票厅",
                "type": "生活服务;售票处;长途汽车票代售点",
                "location": {
                    "w": 26.48336,
                    "r": 113.776295,
                    "lng": 113.776295,
                    "lat": 26.48336
                },
                "address": "霞阳镇文化路15号",
                "tel": "",
                "distance": null
            }, {
                "id": "B02DD0PSIS",
                "name": "中共湘运集团炎陵客运分公司支部委员会",
                "type": "公司企业;公司;公司",
                "location": {
                    "w": 26.483493,
                    "r": 113.77641499999999,
                    "lng": 113.776415,
                    "lat": 26.483493
                },
                "address": "文化路湘运炎陵汽车中心站附近",
                "tel": "",
                "distance": null
            }, {
                "id": "B02DD02237",
                "name": "忆家阿庆嫂店",
                "type": "餐饮服务;中餐厅;中餐厅",
                "location": {
                    "w": 26.48339,
                    "r": 113.77577600000001,
                    "lng": 113.775776,
                    "lat": 26.48339
                },
                "address": "湘运炎陵汽车中心站对面",
                "tel": "13975382529;0731-26225511",
                "distance": null
            }]
        }, {
            "id": 9425,
            "status": 1,
            "name": "酒埠江旅游区",
            "slug": "jiubujianglu:youqu",
            "type": 3,
            "poi": [{
                "id": "B02DD029VU",
                "name": "酒埠江国家地质公园",
                "type": "风景名胜;公园广场;公园",
                "location": {
                    "w": 27.210652,
                    "r": 113.58481899999998,
                    "lng": 113.584819,
                    "lat": 27.210652
                },
                "address": "酒埠江镇",
                "tel": "0731-24466006",
                "distance": null
            }, {
                "id": "B02DD0QAE6",
                "name": "攸县龙泉山庄",
                "type": "住宿服务;住宿服务相关;住宿服务相关",
                "location": {
                    "w": 27.221036,
                    "r": 113.61219900000003,
                    "lng": 113.612199,
                    "lat": 27.221036
                },
                "address": "酒埠江旅游区酒仙湖畔",
                "tel": "0731-24909388",
                "distance": null
            }, {
                "id": "B0FFFAFCR4",
                "name": "株洲龙泉山庄",
                "type": "体育休闲服务;休闲场所;休闲场所",
                "location": {
                    "w": 27.195423,
                    "r": 113.56460099999998,
                    "lng": 113.564601,
                    "lat": 27.195423
                },
                "address": "酒埠江风景旅游区酒仙湖",
                "tel": "0731-24466188;15873344168",
                "distance": null
            }, {
                "id": "B0FFFHOT4H",
                "name": "株洲酒埠江君豪商务酒店",
                "type": "住宿服务;住宿服务相关;住宿服务相关",
                "location": {
                    "w": 27.216336,
                    "r": 113.56496099999998,
                    "lng": 113.564961,
                    "lat": 27.216336
                },
                "address": "酒埠江镇建设路(风景区入口)",
                "tel": "0731-24466688",
                "distance": null
            }, {
                "id": "B0FFFYQCCO",
                "name": "攸县倚水园住宿",
                "type": "住宿服务;住宿服务相关;住宿服务相关",
                "location": {
                    "w": 27.194957,
                    "r": 113.56518699999998,
                    "lng": 113.565187,
                    "lat": 27.194957
                },
                "address": "酒埠江风景区酒仙湖畔",
                "tel": "18107415687",
                "distance": null
            }, {
                "id": "B02DD02126",
                "name": "白龙洞",
                "type": "风景名胜;风景名胜;风景名胜",
                "location": {
                    "w": 27.220141,
                    "r": 113.80462999999997,
                    "lng": 113.80463,
                    "lat": 27.220141
                },
                "address": "酒埠江风景名胜区国家地质公园",
                "tel": "0731-24490982",
                "distance": null
            }, {
                "id": "B0FFF3X1J4",
                "name": "醉月潭酒店",
                "type": "住宿服务;宾馆酒店;宾馆酒店",
                "location": {
                    "w": 27.19939,
                    "r": 113.57236999999998,
                    "lng": 113.57237,
                    "lat": 27.19939
                },
                "address": "酒埠江水电站院内(酒埠江风景区酒仙湖景点畔)",
                "tel": "0731-24466678",
                "distance": null
            }, {
                "id": "B0FFFCOLH1",
                "name": "株洲市酒仙湖景区",
                "type": "风景名胜;风景名胜;国家级景点",
                "location": {
                    "w": 27.210566,
                    "r": 113.584229,
                    "lng": 113.584229,
                    "lat": 27.210566
                },
                "address": "酒埠江镇",
                "tel": "0731-24466007",
                "distance": null
            }]
        }, {
            "id": 17975,
            "status": 1,
            "name": "炎陵县中医院",
            "slug": "yanlingxianzhongyiyuan",
            "type": 5,
            "poi": [{
                "id": "B02DD0223U",
                "name": "湖南省炎陵县中医院",
                "type": "医疗保健服务;综合医院;综合医院",
                "location": {
                    "w": 26.490927,
                    "r": 113.77695900000003,
                    "lng": 113.776959,
                    "lat": 26.490927
                },
                "address": "霞阳镇井岗东路34号",
                "tel": "",
                "distance": null
            }, {
                "id": "B02DD01G0M",
                "name": "炎陵县人民医院",
                "type": "医疗保健服务;综合医院;综合医院",
                "location": {
                    "w": 26.484432,
                    "r": 113.77522699999997,
                    "lng": 113.775227,
                    "lat": 26.484432
                },
                "address": "霞阳镇解放路",
                "tel": "0731-26221942",
                "distance": null
            }, {
                "id": "B02DD0PPVO",
                "name": "炎陵县人民医院停车场",
                "type": "交通设施服务;停车场;公共停车场",
                "location": {
                    "w": 26.484545,
                    "r": 113.77502500000003,
                    "lng": 113.775025,
                    "lat": 26.484545
                },
                "address": "解放路47号",
                "tel": "",
                "distance": null
            }, {
                "id": "B02DD0PSGX",
                "name": "炎陵县人民医院(东门)",
                "type": "医疗保健服务;综合医院;综合医院",
                "location": {
                    "w": 26.485073,
                    "r": 113.77498300000002,
                    "lng": 113.774983,
                    "lat": 26.485073
                },
                "address": "霞阳镇解放路",
                "tel": "",
                "distance": null
            }, {
                "id": "B02DD0PRZL",
                "name": "炎陵县人民医院(西南门)",
                "type": "医疗保健服务;综合医院;综合医院",
                "location": {
                    "w": 26.483442,
                    "r": 113.77480300000002,
                    "lng": 113.774803,
                    "lat": 26.483442
                },
                "address": "神农大道87号附近",
                "tel": "",
                "distance": null
            }, {
                "id": "B02DD0PSY1",
                "name": "炎陵县中医院中心药房",
                "type": "医疗保健服务;医药保健销售店;药房",
                "location": {
                    "w": 26.491002,
                    "r": 113.77713499999999,
                    "lng": 113.777135,
                    "lat": 26.491002
                },
                "address": "井岗东路30号",
                "tel": "",
                "distance": null
            }, {
                "id": "B02DD0QWBY",
                "name": "炎陵县人民医院门诊",
                "type": "医疗保健服务;诊所;诊所",
                "location": {
                    "w": 26.483548,
                    "r": 113.77485999999999,
                    "lng": 113.77486,
                    "lat": 26.483548
                },
                "address": "霞阳镇解放路",
                "tel": "",
                "distance": null
            }, {
                "id": "B02DD0QCRT",
                "name": "炎陵县中医院-五官科",
                "type": "医疗保健服务;医疗保健服务场所;医疗保健服务场所",
                "location": {
                    "w": 26.490897,
                    "r": 113.77680900000001,
                    "lng": 113.776809,
                    "lat": 26.490897
                },
                "address": "霞阳镇井岗东路34号",
                "tel": "",
                "distance": null
            }, {
                "id": "B02DD0QCMW",
                "name": "炎陵县人民医院-急诊",
                "type": "医疗保健服务;急救中心;急救中心",
                "location": {
                    "w": 26.483548,
                    "r": 113.77485999999999,
                    "lng": 113.77486,
                    "lat": 26.483548
                },
                "address": "霞阳镇解放路",
                "tel": "",
                "distance": null
            }, {
                "id": "B02DD0PULP",
                "name": "炎陵县中医院保健康复中心",
                "type": "医疗保健服务;医疗保健服务场所;医疗保健服务场所",
                "location": {
                    "w": 26.491638,
                    "r": 113.77042899999998,
                    "lng": 113.770429,
                    "lat": 26.491638
                },
                "address": "霞阳镇",
                "tel": "",
                "distance": null
            }]
        }, {
            "id": 2240,
            "status": 1,
            "name": "湖南工业大学",
            "slug": "hunangongyedaxue",
            "type": 1,
            "poi": [{
                "id": "B02DD0R880",
                "name": "湖南工业大学新校区",
                "type": "科教文化服务;学校;高等院校",
                "location": {
                    "w": 27.814927,
                    "r": 113.10700700000001,
                    "lng": 113.107007,
                    "lat": 27.814927
                },
                "address": "泰山路88号附近",
                "tel": "0731-22183311",
                "distance": null
            }, {
                "id": "B02DD01YBL",
                "name": "湖南工业大学",
                "type": "科教文化服务;学校;高等院校",
                "location": {
                    "w": 27.83048,
                    "r": 113.17289700000003,
                    "lng": 113.172897,
                    "lat": 27.83048
                },
                "address": "学府路",
                "tel": "",
                "distance": null
            }, {
                "id": "B0FFFYA77X",
                "name": "湖南工业大学(大坪路店)",
                "type": "科教文化服务;科教文化场所;科教文化场所",
                "location": {
                    "w": 27.85203,
                    "r": 113.16595999999998,
                    "lng": 113.16596,
                    "lat": 27.85203
                },
                "address": "大坪路218号",
                "tel": "",
                "distance": null
            }, {
                "id": "B02DD021IP",
                "name": "湖南工业大学攸县分校",
                "type": "科教文化服务;学校;高等院校",
                "location": {
                    "w": 27.010739,
                    "r": 113.32934399999999,
                    "lng": 113.329344,
                    "lat": 27.010739
                },
                "address": "攸衡路",
                "tel": "",
                "distance": null
            }, {
                "id": "B02DD01YBK",
                "name": "湖南工业大学(西北1门)",
                "type": "科教文化服务;学校;高等院校",
                "location": {
                    "w": 27.830074,
                    "r": 113.16931799999998,
                    "lng": 113.169318,
                    "lat": 27.830074
                },
                "address": "文化路",
                "tel": "",
                "distance": null
            }, {
                "id": "B02DD0PQTC",
                "name": "湖南工业大学(南门)",
                "type": "科教文化服务;学校;高等院校",
                "location": {
                    "w": 27.814389,
                    "r": 113.10628600000001,
                    "lng": 113.106286,
                    "lat": 27.814389
                },
                "address": "泰山路88号",
                "tel": "",
                "distance": null
            }, {
                "id": "B02DD0PWXC",
                "name": "湖南工业大学(西北2门)",
                "type": "科教文化服务;学校;高等院校",
                "location": {
                    "w": 27.835486,
                    "r": 113.17639700000001,
                    "lng": 113.176397,
                    "lat": 27.835486
                },
                "address": "文化路附近",
                "tel": "",
                "distance": null
            }, {
                "id": "B02DD0PT7J",
                "name": "湖南工业大学停车场",
                "type": "交通设施服务;停车场;公共停车场",
                "location": {
                    "w": 27.814569,
                    "r": 113.10680000000002,
                    "lng": 113.1068,
                    "lat": 27.814569
                },
                "address": "泰山路附近",
                "tel": "",
                "distance": null
            }, {
                "id": "B0FFFEC2HW",
                "name": "湖南工业大学图书馆",
                "type": "科教文化服务;图书馆;图书馆",
                "location": {
                    "w": 27.819879,
                    "r": 113.10589299999998,
                    "lng": 113.105893,
                    "lat": 27.819879
                },
                "address": "泰山西路88号",
                "tel": "",
                "distance": null
            }, {
                "id": "B02DD0QBGN",
                "name": "湖南工业大学-图书馆",
                "type": "科教文化服务;图书馆;图书馆",
                "location": {
                    "w": 27.829948,
                    "r": 113.17331999999999,
                    "lng": 113.17332,
                    "lat": 27.829948
                },
                "address": "工业大学内",
                "tel": "",
                "distance": null
            }]
        }, {
            "id": 2243,
            "status": 1,
            "name": "湖南冶金职业技术学院",
            "slug": "hunanyejinzhiyejishuxueyuan",
            "type": 1,
            "poi": [{
                "id": "B02DC00179",
                "name": "湖南冶金职业技术学院湘潭校区",
                "type": "科教文化服务;学校;职业技术学校",
                "location": {
                    "w": 27.836611,
                    "r": 112.92451900000003,
                    "lng": 112.924519,
                    "lat": 27.836611
                },
                "address": "河东大道",
                "tel": "0731-58292163",
                "distance": null
            }]
        }, {
            "id": 2242,
            "status": 1,
            "name": "湖南铁道职业技术学院",
            "slug": "hunantiedaozhiyejishuxueyuan",
            "type": 1,
            "poi": [{
                "id": "B02DD00FDC",
                "name": "湖南铁道职业技术学院",
                "type": "科教文化服务;学校;职业技术学校",
                "location": {
                    "w": 27.880115,
                    "r": 113.12931300000002,
                    "lng": 113.129313,
                    "lat": 27.880115
                },
                "address": "田心大道18号",
                "tel": "0731-22435678",
                "distance": null
            }, {
                "id": "B02DD022AP",
                "name": "湖南铁道职业技术学院(东院)",
                "type": "科教文化服务;学校;职业技术学校|科教文化服务;学校;高等院校",
                "location": {
                    "w": 27.877772,
                    "r": 113.135355,
                    "lng": 113.135355,
                    "lat": 27.877772
                },
                "address": "田东路89号",
                "tel": "0731-22435678",
                "distance": null
            }, {
                "id": "B02DD040Y4",
                "name": "湖南铁道职业技术学院(西北门)",
                "type": "科教文化服务;学校;高等院校",
                "location": {
                    "w": 27.880066,
                    "r": 113.12810200000001,
                    "lng": 113.128102,
                    "lat": 27.880066
                },
                "address": "田心大道18号",
                "tel": "",
                "distance": null
            }, {
                "id": "B02DD026UQ",
                "name": "湖南铁道职业技术学院(东南门)",
                "type": "科教文化服务;学校;高等院校",
                "location": {
                    "w": 27.876922,
                    "r": 113.12903900000003,
                    "lng": 113.129039,
                    "lat": 27.876922
                },
                "address": "田心大道",
                "tel": "",
                "distance": null
            }, {
                "id": "B02DD0PUFN",
                "name": "湖南铁道职业技术学院(东门)",
                "type": "科教文化服务;学校;高等院校",
                "location": {
                    "w": 27.880414,
                    "r": 113.130518,
                    "lng": 113.130518,
                    "lat": 27.880414
                },
                "address": "田心田东路",
                "tel": "",
                "distance": null
            }, {
                "id": "B0FFFOE4EH",
                "name": "湖南铁道职业技术学院图书馆",
                "type": "科教文化服务;图书馆;图书馆",
                "location": {
                    "w": 27.878241,
                    "r": 113.128018,
                    "lng": 113.128018,
                    "lat": 27.878241
                },
                "address": "田心社区",
                "tel": "",
                "distance": null
            }, {
                "id": "B02DD0QF8B",
                "name": "湖南铁道职业技术学院-机电工程系",
                "type": "科教文化服务;学校;职业技术学校",
                "location": {
                    "w": 27.877622,
                    "r": 113.13526999999999,
                    "lng": 113.13527,
                    "lat": 27.877622
                },
                "address": "田心路89号",
                "tel": "",
                "distance": null
            }, {
                "id": "B02DD0QF7R",
                "name": "湖南铁道职业技术学院-信息工程系",
                "type": "科教文化服务;科教文化场所;科教文化场所",
                "location": {
                    "w": 27.877908,
                    "r": 113.12814500000002,
                    "lng": 113.128145,
                    "lat": 27.877908
                },
                "address": "田心路18号",
                "tel": "",
                "distance": null
            }, {
                "id": "B02DD0QFA6",
                "name": "湖南铁道职业技术学院-电气工程系",
                "type": "科教文化服务;科教文化场所;科教文化场所",
                "location": {
                    "w": 27.877622,
                    "r": 113.135264,
                    "lng": 113.135264,
                    "lat": 27.877622
                },
                "address": "田心路89号",
                "tel": "",
                "distance": null
            }, {
                "id": "B02DD0QFD6",
                "name": "湖南铁道职业技术学院经贸管理系",
                "type": "科教文化服务;学校;职业技术学校",
                "location": {
                    "w": 27.877864,
                    "r": 113.12803099999996,
                    "lng": 113.128031,
                    "lat": 27.877864
                },
                "address": "田心路18号",
                "tel": "",
                "distance": null
            }]
        }, {
            "id": 2234,
            "status": 1,
            "name": "株洲师范高等专科学校",
            "slug": "zhuzhoushifangaodengzhuankexuexiao",
            "type": 1,
            "poi": [{
                "id": "BV10232397",
                "name": "株洲师专(公交站)",
                "type": "交通设施服务;公交车站;公交车站相关",
                "location": {
                    "w": 27.818291,
                    "r": 113.12831900000003,
                    "lng": 113.128319,
                    "lat": 27.818291
                },
                "address": "32路;108路;T17路;T26路;T35路;T45路;T49路;T59路",
                "tel": "",
                "distance": null
            }, {
                "id": "B0FFFTD3J5",
                "name": "株洲师专自行车租赁点",
                "type": "生活服务;生活服务场所;生活服务场所",
                "location": {
                    "w": 27.817479,
                    "r": 113.12662399999999,
                    "lng": 113.126624,
                    "lat": 27.817479
                },
                "address": "泰山路442附近",
                "tel": "",
                "distance": null
            }, {
                "id": "B0FFFL3MLL",
                "name": "株洲师专2自行车租赁点",
                "type": "生活服务;生活服务场所;生活服务场所",
                "location": {
                    "w": 27.817807,
                    "r": 113.12756200000001,
                    "lng": 113.127562,
                    "lat": 27.817807
                },
                "address": "泰山路382附近",
                "tel": "",
                "distance": null
            }, {
                "id": "B0FFF38WGN",
                "name": "株洲奥园广场",
                "type": "商务住宅;住宅区;住宅区",
                "location": {
                    "w": 27.813572,
                    "r": 113.12986899999999,
                    "lng": 113.129869,
                    "lat": 27.813572
                },
                "address": "神农城央·珠江南路与泰山路交汇处(株洲师专原址)",
                "tel": "",
                "distance": null
            }]
        }, {
            "id": 18920,
            "status": 1,
            "name": "仙山公园",
            "slug": "xianshangongyuan",
            "type": 3
        }, {
            "id": 17998,
            "status": 1,
            "name": "红军标语博物馆",
            "slug": "hongjunbiaoyubowuguan",
            "type": 3,
            "poi": [{
                "id": "B02DD0PS1I",
                "name": "红军标语博物馆",
                "type": "科教文化服务;博物馆;博物馆",
                "location": {
                    "w": 26.488167,
                    "r": 113.772853,
                    "lng": 113.772853,
                    "lat": 26.488167
                },
                "address": "新市街2-4号",
                "tel": "",
                "distance": null
            }]
        }, {
            "id": 2233,
            "status": 1,
            "name": "湖南铁路科技职业技术学院",
            "slug": "hunantielukejizhiyejishuxueyuan",
            "type": 1,
            "poi": [{
                "id": "B02DD0QFF4",
                "name": "湖南铁路科技职业技术学院",
                "type": "科教文化服务;学校;职业技术学校",
                "location": {
                    "w": 27.904616,
                    "r": 113.16067399999997,
                    "lng": 113.160674,
                    "lat": 27.904616
                },
                "address": "智慧路1号",
                "tel": "0731-22777009",
                "distance": null
            }, {
                "id": "B02DD0PUQ9",
                "name": "湖南铁路科技职业技术学院",
                "type": "科教文化服务;学校;职业技术学校",
                "location": {
                    "w": 27.8708,
                    "r": 113.183625,
                    "lng": 113.183625,
                    "lat": 27.8708
                },
                "address": "芙蓉路98号",
                "tel": "0731-28223346",
                "distance": null
            }, {
                "id": "B02DD022AR",
                "name": "湖南铁路科技职业技术学院(建设中路)",
                "type": "科教文化服务;学校;职业技术学校",
                "location": {
                    "w": 27.840963,
                    "r": 113.14892700000001,
                    "lng": 113.148927,
                    "lat": 27.840963
                },
                "address": "建设中路171号",
                "tel": "0731-28223346",
                "distance": null
            }, {
                "id": "B02DD0PQMX",
                "name": "湖南铁路科技职业技术学院(东北门)",
                "type": "科教文化服务;学校;职业技术学校",
                "location": {
                    "w": 27.841191,
                    "r": 113.14912800000002,
                    "lng": 113.149128,
                    "lat": 27.841191
                },
                "address": "建设中路171号",
                "tel": "",
                "distance": null
            }, {
                "id": "B02DD0PV49",
                "name": "湖南铁路科技职业技术学院(西南1门)",
                "type": "科教文化服务;学校;职业技术学校",
                "location": {
                    "w": 27.870698,
                    "r": 113.183269,
                    "lng": 113.183269,
                    "lat": 27.870698
                },
                "address": "芙蓉路98号",
                "tel": "",
                "distance": null
            }, {
                "id": "B02DD0PTDX",
                "name": "湖南铁路科技职业技术学院(西南2门)",
                "type": "科教文化服务;学校;高等院校",
                "location": {
                    "w": 27.871462,
                    "r": 113.18296700000002,
                    "lng": 113.182967,
                    "lat": 27.871462
                },
                "address": "芙蓉路118号附近",
                "tel": "",
                "distance": null
            }, {
                "id": "B02DD0QBG3",
                "name": "湖南铁路科技职业技术学院-图书馆",
                "type": "科教文化服务;图书馆;图书馆",
                "location": {
                    "w": 27.872008,
                    "r": 113.18363,
                    "lng": 113.18363,
                    "lat": 27.872008
                },
                "address": "铁路科技职业技术学院内",
                "tel": "",
                "distance": null
            }, {
                "id": "B02DD022AS",
                "name": "湖南铁路科技职业技术学院东校区",
                "type": "科教文化服务;学校;职业技术学校",
                "location": {
                    "w": 27.875265,
                    "r": 113.18095199999999,
                    "lng": 113.180952,
                    "lat": 27.875265
                },
                "address": "芙蓉路198号",
                "tel": "",
                "distance": null
            }, {
                "id": "B0FFFOEL7L",
                "name": "湖南铁路科技职业技术学院东校区(南门)",
                "type": "科教文化服务;学校;职业技术学校",
                "location": {
                    "w": 27.87473,
                    "r": 113.18097399999999,
                    "lng": 113.180974,
                    "lat": 27.87473
                },
                "address": "芙蓉路附近",
                "tel": "",
                "distance": null
            }, {
                "id": "B0FFFOEPWF",
                "name": "湖南铁路科技职业技术学院图书馆(建设中路)",
                "type": "科教文化服务;图书馆;图书馆",
                "location": {
                    "w": 27.840645,
                    "r": 113.14791200000002,
                    "lng": 113.147912,
                    "lat": 27.840645
                },
                "address": "建设中路171号",
                "tel": "",
                "distance": null
            }]
        }, {
            "id": 2239,
            "status": 1,
            "name": "王府井",
            "slug": "wangfujing",
            "type": 1,
            "poi": [{
                "id": "B02DB040BC",
                "name": "王府井百货(黄兴中路店)",
                "type": "购物服务;商场;购物中心",
                "location": {
                    "w": 28.19271376,
                    "r": 112.97586969999998,
                    "lng": 112.97587,
                    "lat": 28.192714
                },
                "address": "黄兴中路27",
                "tel": "0731-84892500;0731-84892666",
                "distance": null
            }, {
                "id": "B0FFG4BUIP",
                "name": "王府井美食广场(王府井百货黄兴中路店)",
                "type": "餐饮服务;中餐厅;中餐厅",
                "location": {
                    "w": 28.192644,
                    "r": 112.97515599999997,
                    "lng": 112.975156,
                    "lat": 28.192644
                },
                "address": "黄兴中路27号B1层",
                "tel": "",
                "distance": null
            }, {
                "id": "B0FFG26IFI",
                "name": "王府井超市",
                "type": "购物服务;超级市场;超市",
                "location": {
                    "w": 28.193247,
                    "r": 112.97527000000002,
                    "lng": 112.97527,
                    "lat": 28.193247
                },
                "address": "黄兴中路27号王府井百货B1楼(近五一广场)",
                "tel": "0731-84892500",
                "distance": null
            }, {
                "id": "B02DB077O8",
                "name": "王府井商业广场",
                "type": "风景名胜;公园广场;城市广场",
                "location": {
                    "w": 28.192223,
                    "r": 112.97606300000001,
                    "lng": 112.976063,
                    "lat": 28.192223
                },
                "address": "黄兴中路13号",
                "tel": "",
                "distance": null
            }, {
                "id": "B02DB05X9Y",
                "name": "王府井商业广场商务楼",
                "type": "商务住宅;楼宇;商务写字楼",
                "location": {
                    "w": 28.191913,
                    "r": 112.975122,
                    "lng": 112.975122,
                    "lat": 28.191913
                },
                "address": "解放西路316号附近",
                "tel": "",
                "distance": null
            }, {
                "id": "B0FFFRG88C",
                "name": "王府井百货(黄兴中路店)停车场",
                "type": "交通设施服务;停车场;专用停车场",
                "location": {
                    "w": 28.191877,
                    "r": 112.97532100000001,
                    "lng": 112.975321,
                    "lat": 28.191877
                },
                "address": "黄兴中路404附近",
                "tel": "",
                "distance": null
            }, {
                "id": "B0FFF5M6W6",
                "name": "王府井百货停车场(解放西路出入口)",
                "type": "交通设施服务;停车场;停车场出入口",
                "location": {
                    "w": 28.193183,
                    "r": 112.97525999999999,
                    "lng": 112.97526,
                    "lat": 28.193183
                },
                "address": "黄兴中路39号附近",
                "tel": "",
                "distance": null
            }, {
                "id": "B0FFFSNY70",
                "name": "长沙王府井尊尚会所",
                "type": "生活服务;美容美发店;美容美发店",
                "location": {
                    "w": 28.192829,
                    "r": 112.976158,
                    "lng": 112.976158,
                    "lat": 28.192829
                },
                "address": "王府井百货影城10楼",
                "tel": "0731-84437552",
                "distance": null
            }, {
                "id": "B0FFFQ6MX0",
                "name": "王府井商业广场商务楼(北门)",
                "type": "商务住宅;楼宇;商务写字楼",
                "location": {
                    "w": 28.191909,
                    "r": 112.97530599999999,
                    "lng": 112.975306,
                    "lat": 28.191909
                },
                "address": "解放西路316号",
                "tel": "",
                "distance": null
            }, {
                "id": "B0FFFFLES0",
                "name": "levi’s长沙王府井店",
                "type": "购物服务;专卖店;专营店",
                "location": {
                    "w": 28.192829,
                    "r": 112.976158,
                    "lng": 112.976158,
                    "lat": 28.192829
                },
                "address": "黄兴中路27王府井百货6层",
                "tel": "",
                "distance": null
            }]
        }, {
            "id": 2237,
            "status": 1,
            "name": "株洲职业技术学院",
            "slug": "zhuzhouzhiyejishuxueyuan",
            "type": 1,
            "poi": [{
                "id": "B02DD00FDC",
                "name": "湖南铁道职业技术学院",
                "type": "科教文化服务;学校;职业技术学校",
                "location": {
                    "w": 27.880115,
                    "r": 113.12931300000002,
                    "lng": 113.129313,
                    "lat": 27.880115
                },
                "address": "田心大道18号",
                "tel": "0731-22435678",
                "distance": null
            }, {
                "id": "B02DD0PWFF",
                "name": "株洲职院交通驾校",
                "type": "科教文化服务;驾校;驾校",
                "location": {
                    "w": 27.871432,
                    "r": 113.149156,
                    "lng": 113.149156,
                    "lat": 27.871432
                },
                "address": "红旗北路138号",
                "tel": "",
                "distance": null
            }, {
                "id": "B0FFFF24RQ",
                "name": "株洲职院汽车服务有限公司修理厂",
                "type": "汽车维修;汽车维修;汽车维修",
                "location": {
                    "w": 27.87808,
                    "r": 113.14068900000001,
                    "lng": 113.140689,
                    "lat": 27.87808
                },
                "address": "红旗北路39号附近",
                "tel": "0731-22177338",
                "distance": null
            }, {
                "id": "B0FFG6LYZ9",
                "name": "学林派出所株洲职院警务室",
                "type": "政府机构及社会团体;公检法机构;社会治安机构",
                "location": {
                    "w": 27.881608,
                    "r": 113.14238399999999,
                    "lng": 113.142384,
                    "lat": 27.881608
                },
                "address": "红旗北路476号附近",
                "tel": "",
                "distance": null
            }, {
                "id": "B02DD022AP",
                "name": "湖南铁道职业技术学院(东院)",
                "type": "科教文化服务;学校;职业技术学校|科教文化服务;学校;高等院校",
                "location": {
                    "w": 27.877772,
                    "r": 113.135355,
                    "lng": 113.135355,
                    "lat": 27.877772
                },
                "address": "田东路89号",
                "tel": "0731-22435678",
                "distance": null
            }, {
                "id": "B02DD0PUFN",
                "name": "湖南铁道职业技术学院(东门)",
                "type": "科教文化服务;学校;高等院校",
                "location": {
                    "w": 27.880414,
                    "r": 113.130518,
                    "lng": 113.130518,
                    "lat": 27.880414
                },
                "address": "田心田东路",
                "tel": "",
                "distance": null
            }, {
                "id": "B0FFG47N8T",
                "name": "重庆鸡公煲(株洲职院店)",
                "type": "餐饮服务;中餐厅;中餐厅",
                "location": {
                    "w": 27.88116,
                    "r": 113.141975,
                    "lng": 113.141975,
                    "lat": 27.88116
                },
                "address": "田心环保学院对面",
                "tel": "18373170794;13077004313",
                "distance": null
            }, {
                "id": "B0FFFFBQT7",
                "name": "武汉九久丫(株洲职院店)",
                "type": "餐饮服务;餐饮相关场所;餐饮相关",
                "location": {
                    "w": 27.88044,
                    "r": 113.14190000000002,
                    "lng": 113.1419,
                    "lat": 27.88044
                },
                "address": "学院路附近",
                "tel": "18229108288",
                "distance": null
            }, {
                "id": "B0FFG6ISTH",
                "name": "攸洲烧焬粉店(株洲职院店)",
                "type": "餐饮服务;中餐厅;中餐厅",
                "location": {
                    "w": 27.879474,
                    "r": 113.14119299999999,
                    "lng": 113.141193,
                    "lat": 27.879474
                },
                "address": "田龙路附近",
                "tel": "13762316366",
                "distance": null
            }, {
                "id": "B0FFG6LZV6",
                "name": "重庆兄弟麻辣烫(株洲职院三分店)",
                "type": "餐饮服务;中餐厅;中餐厅",
                "location": {
                    "w": 27.881641,
                    "r": 113.142405,
                    "lng": 113.142405,
                    "lat": 27.881641
                },
                "address": "红旗北路476号附近",
                "tel": "13874154066",
                "distance": null
            }]
        }, {
            "id": 17995,
            "status": 1,
            "name": "炎帝公园",
            "slug": "yandigongyuan",
            "type": 3
        }, {
            "id": 18912,
            "status": 1,
            "name": "醴陵火车站",
            "slug": "lilinghuochezhan",
            "type": 2,
            "poi": [{
                "id": "B02DD01FEN",
                "name": "醴陵站",
                "type": "交通设施服务;火车站;火车站",
                "location": {
                    "w": 27.669956,
                    "r": 113.51139899999998,
                    "lng": 113.511399,
                    "lat": 27.669956
                },
                "address": "瓷城大道",
                "tel": "",
                "distance": null
            }, {
                "id": "B0FFFGNCVR",
                "name": "醴陵东站",
                "type": "交通设施服务;火车站;火车站",
                "location": {
                    "w": 27.714875,
                    "r": 113.57800099999997,
                    "lng": 113.578001,
                    "lat": 27.714875
                },
                "address": "王仙镇清潭村",
                "tel": "",
                "distance": null
            }, {
                "id": "B02DD0QXF7",
                "name": "醴陵站(西南出站口)",
                "type": "交通设施服务;火车站;火车站",
                "location": {
                    "w": 27.670262,
                    "r": 113.51112999999998,
                    "lng": 113.51113,
                    "lat": 27.670262
                },
                "address": "瓷城大道醴陵站附近",
                "tel": "",
                "distance": null
            }, {
                "id": "B02DD0QXF6",
                "name": "醴陵站(西南进站口)",
                "type": "交通设施服务;火车站;火车站",
                "location": {
                    "w": 27.670096,
                    "r": 113.51125200000001,
                    "lng": 113.511252,
                    "lat": 27.670096
                },
                "address": "瓷城大道醴陵站附近",
                "tel": "",
                "distance": null
            }, {
                "id": "B02DD00D62",
                "name": "醴陵汽车站",
                "type": "交通设施服务;长途汽车站;长途汽车站",
                "location": {
                    "w": 27.661204,
                    "r": 113.50305900000001,
                    "lng": 113.503059,
                    "lat": 27.661204
                },
                "address": "瓷城大道52号",
                "tel": "0731-23243990",
                "distance": null
            }, {
                "id": "B0FFF5YLF0",
                "name": "醴陵南站",
                "type": "交通设施服务;长途汽车站;长途汽车站",
                "location": {
                    "w": 27.63581,
                    "r": 113.51290899999998,
                    "lng": 113.512909,
                    "lat": 27.63581
                },
                "address": "左权南路附近",
                "tel": "0731-23037116",
                "distance": null
            }, {
                "id": "B0FFFGNLH3",
                "name": "醴陵东站(西南出站口)",
                "type": "交通设施服务;火车站;火车站",
                "location": {
                    "w": 27.714981,
                    "r": 113.57754799999998,
                    "lng": 113.577548,
                    "lat": 27.714981
                },
                "address": "",
                "tel": "",
                "distance": null
            }, {
                "id": "B0FFFGMZNP",
                "name": "醴陵东站(西南进站口)",
                "type": "交通设施服务;火车站;火车站",
                "location": {
                    "w": 27.714819,
                    "r": 113.57795399999998,
                    "lng": 113.577954,
                    "lat": 27.714819
                },
                "address": "",
                "tel": "",
                "distance": null
            }, {
                "id": "B02DD0PSDR",
                "name": "醴陵站售票厅",
                "type": "生活服务;售票处;火车票代售点",
                "location": {
                    "w": 27.669908,
                    "r": 113.51137299999999,
                    "lng": 113.511373,
                    "lat": 27.669908
                },
                "address": "来龙门街道国瓷南路",
                "tel": "",
                "distance": null
            }, {
                "id": "B0FFFGNNDI",
                "name": "醴陵东站停车场",
                "type": "交通设施服务;停车场;公共停车场",
                "location": {
                    "w": 27.713985,
                    "r": 113.57825200000002,
                    "lng": 113.578252,
                    "lat": 27.713985
                },
                "address": "高铁东站",
                "tel": "",
                "distance": null
            }]
        }, {
            "id": 18915,
            "status": 1,
            "name": "醴陵市妇幼保健院",
            "slug": "lilingshifuyoubaojianyuan",
            "type": 5,
            "poi": [{
                "id": "B02DD020E6",
                "name": "醴陵市妇幼保健院",
                "type": "医疗保健服务;专科医院;专科医院",
                "location": {
                    "w": 27.66577,
                    "r": 113.50659000000002,
                    "lng": 113.50659,
                    "lat": 27.66577
                },
                "address": "解放路84号",
                "tel": "0731-23242480;0731-23225555",
                "distance": null
            }, {
                "id": "B02DD0QCPC",
                "name": "醴陵市妇幼保健院-急诊",
                "type": "医疗保健服务;医疗保健服务场所;医疗保健服务场所",
                "location": {
                    "w": 27.665807,
                    "r": 113.50659999999999,
                    "lng": 113.5066,
                    "lat": 27.665807
                },
                "address": "解放路84号",
                "tel": "0731-23225555",
                "distance": null
            }, {
                "id": "B02DD0QSA5",
                "name": "醴陵市妇幼保健院-门诊部",
                "type": "医疗保健服务;专科医院;专科医院",
                "location": {
                    "w": 27.665703,
                    "r": 113.50657000000001,
                    "lng": 113.50657,
                    "lat": 27.665703
                },
                "address": "解放路84号",
                "tel": "",
                "distance": null
            }, {
                "id": "B0FFG2K6O2",
                "name": "醴陵市妇幼保健院牙科",
                "type": "医疗保健服务;诊所;诊所",
                "location": {
                    "w": 27.665362,
                    "r": 113.50717700000001,
                    "lng": 113.507177,
                    "lat": 27.665362
                },
                "address": "瓷城大道84号附近",
                "tel": "15307332121",
                "distance": null
            }, {
                "id": "B02DD0PRLU",
                "name": "醴陵市妇幼保健院儿童医院",
                "type": "医疗保健服务;综合医院;综合医院|医疗保健服务;专科医院;专科医院",
                "location": {
                    "w": 27.66577,
                    "r": 113.50659100000001,
                    "lng": 113.506591,
                    "lat": 27.66577
                },
                "address": "解放路84号",
                "tel": "0731-23225555",
                "distance": null
            }, {
                "id": "B02DD0PT33",
                "name": "月满楼宾馆",
                "type": "住宿服务;宾馆酒店;宾馆酒店",
                "location": {
                    "w": 27.665215,
                    "r": 113.50548300000003,
                    "lng": 113.505483,
                    "lat": 27.665215
                },
                "address": "解放路84号醴陵市妇幼保健院附近",
                "tel": "0731-23242668;0731-23216988",
                "distance": null
            }, {
                "id": "B02DD0PSPU",
                "name": "千方大药房(瓷城大道)",
                "type": "医疗保健服务;医药保健销售店;药房",
                "location": {
                    "w": 27.665159,
                    "r": 113.50697200000002,
                    "lng": 113.506972,
                    "lat": 27.665159
                },
                "address": "瓷城大道妇幼保健院大门旁边",
                "tel": "13574241103",
                "distance": null
            }, {
                "id": "B0FFFOUGF5",
                "name": "速维电子",
                "type": "生活服务;生活服务场所;生活服务场所",
                "location": {
                    "w": 27.665316,
                    "r": 113.50760000000002,
                    "lng": 113.5076,
                    "lat": 27.665316
                },
                "address": "妇幼保健院斜对面",
                "tel": "0731-23222292;13054118778",
                "distance": null
            }, {
                "id": "B02DD0QASM",
                "name": "惠耳听力助听器(瓷城大道)",
                "type": "医疗保健服务;医药保健销售店;医疗保健用品",
                "location": {
                    "w": 27.665291,
                    "r": 113.507588,
                    "lng": 113.507588,
                    "lat": 27.665291
                },
                "address": "将瓷城大道91号(妇幼妇幼保健院斜对面)",
                "tel": "0731-22350080",
                "distance": null
            }]
        }, {
            "id": 15268,
            "status": 1,
            "name": "明馨宾馆",
            "slug": "mingxinbinguan",
            "type": 3,
            "poi": [{
                "id": "B0FFFAPUD2",
                "name": "铭心宾馆",
                "type": "住宿服务;宾馆酒店;宾馆酒店",
                "location": {
                    "w": 28.262407,
                    "r": 113.077835,
                    "lng": 113.077835,
                    "lat": 28.262407
                },
                "address": "灰埠小区明月路62号",
                "tel": "0731-82572725;15873172420",
                "distance": null
            }]
        }, {
            "id": 17990,
            "status": 1,
            "name": "炎陵县人民医院",
            "slug": "yanlingxianrenminyiyuan",
            "type": 5,
            "poi": [{
                "id": "B02DD01G0M",
                "name": "炎陵县人民医院",
                "type": "医疗保健服务;综合医院;综合医院",
                "location": {
                    "w": 26.484432,
                    "r": 113.77522699999997,
                    "lng": 113.775227,
                    "lat": 26.484432
                },
                "address": "霞阳镇解放路",
                "tel": "0731-26221942",
                "distance": null
            }, {
                "id": "B02DD0QWBY",
                "name": "炎陵县人民医院门诊",
                "type": "医疗保健服务;诊所;诊所",
                "location": {
                    "w": 26.483548,
                    "r": 113.77485999999999,
                    "lng": 113.77486,
                    "lat": 26.483548
                },
                "address": "霞阳镇解放路",
                "tel": "",
                "distance": null
            }, {
                "id": "B02DD0PPVO",
                "name": "炎陵县人民医院停车场",
                "type": "交通设施服务;停车场;公共停车场",
                "location": {
                    "w": 26.484545,
                    "r": 113.77502500000003,
                    "lng": 113.775025,
                    "lat": 26.484545
                },
                "address": "解放路47号",
                "tel": "",
                "distance": null
            }, {
                "id": "B02DD0QCMW",
                "name": "炎陵县人民医院-急诊",
                "type": "医疗保健服务;急救中心;急救中心",
                "location": {
                    "w": 26.483548,
                    "r": 113.77485999999999,
                    "lng": 113.77486,
                    "lat": 26.483548
                },
                "address": "霞阳镇解放路",
                "tel": "",
                "distance": null
            }, {
                "id": "B02DD0PSGX",
                "name": "炎陵县人民医院(东门)",
                "type": "医疗保健服务;综合医院;综合医院",
                "location": {
                    "w": 26.485073,
                    "r": 113.77498300000002,
                    "lng": 113.774983,
                    "lat": 26.485073
                },
                "address": "霞阳镇解放路",
                "tel": "",
                "distance": null
            }, {
                "id": "B02DD0PRZL",
                "name": "炎陵县人民医院(西南门)",
                "type": "医疗保健服务;综合医院;综合医院",
                "location": {
                    "w": 26.483442,
                    "r": 113.77480300000002,
                    "lng": 113.774803,
                    "lat": 26.483442
                },
                "address": "神农大道87号附近",
                "tel": "",
                "distance": null
            }, {
                "id": "B02DD0R7KE",
                "name": "炎陵县人民医院感染科",
                "type": "医疗保健服务;综合医院;综合医院",
                "location": {
                    "w": 26.484616,
                    "r": 113.77560800000003,
                    "lng": 113.775608,
                    "lat": 26.484616
                },
                "address": "霞阳镇解放路炎陵县人民医院",
                "tel": "",
                "distance": null
            }, {
                "id": "B02DD0QCNT",
                "name": "炎陵县人民医院-放射科",
                "type": "医疗保健服务;医疗保健服务场所;医疗保健服务场所",
                "location": {
                    "w": 26.484244,
                    "r": 113.77492000000001,
                    "lng": 113.77492,
                    "lat": 26.484244
                },
                "address": "霞阳镇解放路炎陵县人民医院",
                "tel": "",
                "distance": null
            }, {
                "id": "B02DD0PRSK",
                "name": "中共炎陵县人民医院总支委员会",
                "type": "医疗保健服务;综合医院;综合医院",
                "location": {
                    "w": 26.484432,
                    "r": 113.77522599999998,
                    "lng": 113.775226,
                    "lat": 26.484432
                },
                "address": "霞阳镇解放路",
                "tel": "",
                "distance": null
            }, {
                "id": "B02DD0QV63",
                "name": "炎陵县人民医院-第二住院楼",
                "type": "医疗保健服务;医疗保健服务场所;医疗保健服务场所",
                "location": {
                    "w": 26.484244,
                    "r": 113.77492000000001,
                    "lng": 113.77492,
                    "lat": 26.484244
                },
                "address": "解放路炎陵县人民医院附近",
                "tel": "",
                "distance": null
            }]
        }, {
            "id": 18917,
            "status": 1,
            "name": "醴陵现代妇科医院",
            "slug": "lilingxiandaifukeyiyuan",
            "type": 5,
            "poi": [{
                "id": "B02DD0PTAP",
                "name": "现代妇科医院",
                "type": "医疗保健服务;专科医院;妇科医院",
                "location": {
                    "w": 27.64695,
                    "r": 113.51674000000003,
                    "lng": 113.51674,
                    "lat": 27.64695
                },
                "address": "立三路138号",
                "tel": "0731-22922222",
                "distance": null
            }, {
                "id": "B02DD020LC",
                "name": "兰天宾馆(现代妇科医院西)",
                "type": "住宿服务;宾馆酒店;宾馆酒店",
                "location": {
                    "w": 27.646943,
                    "r": 113.51613900000001,
                    "lng": 113.516139,
                    "lat": 27.646943
                },
                "address": "立三大道169号",
                "tel": "0731-23024788",
                "distance": null
            }, {
                "id": "B02DD020LH",
                "name": "金龙宾馆(现代妇科医院东南)",
                "type": "住宿服务;宾馆酒店;宾馆酒店",
                "location": {
                    "w": 27.645079,
                    "r": 113.51761399999998,
                    "lng": 113.517614,
                    "lat": 27.645079
                },
                "address": "阳三社区立三大道231号",
                "tel": "0731-23056666",
                "distance": null
            }]
        }, {
            "id": 18916,
            "status": 1,
            "name": "湖南师范大学附属湘东医院",
            "slug": "hunanshifandaxuefushuxiangdongyiyuan",
            "type": 5
        }, {
            "id": 18919,
            "status": 1,
            "name": "醴陵市精神病医院",
            "slug": "lilingshijingshenbingyiyuan",
            "type": 5
        }, {
            "id": 18013,
            "status": 1,
            "name": "株洲县第一人民医院",
            "slug": "zhuzhouxiandiyirenminyiyuan",
            "type": 5,
            "poi": [{
                "id": "B02DD01294",
                "name": "株洲县第一人民医院",
                "type": "医疗保健服务;综合医院;综合医院",
                "location": {
                    "w": 27.696622,
                    "r": 113.14206999999999,
                    "lng": 113.14207,
                    "lat": 27.696622
                },
                "address": "渌口镇南江南路48号",
                "tel": "0731-27618212",
                "distance": null
            }, {
                "id": "B02DD0R4N6",
                "name": "株洲县第一人民医院-门诊部",
                "type": "医疗保健服务;综合医院;综合医院",
                "location": {
                    "w": 27.697086,
                    "r": 113.14172000000002,
                    "lng": 113.14172,
                    "lat": 27.697086
                },
                "address": "南江南路48附近",
                "tel": "",
                "distance": null
            }, {
                "id": "B0FFFODULL",
                "name": "株洲县第一人民医院(西门)",
                "type": "医疗保健服务;综合医院;综合医院",
                "location": {
                    "w": 27.696673,
                    "r": 113.14164800000003,
                    "lng": 113.141648,
                    "lat": 27.696673
                },
                "address": "渌口镇南江南路48号",
                "tel": "",
                "distance": null
            }, {
                "id": "B02DD0QMV1",
                "name": "株洲县第一人民医院-急诊科",
                "type": "医疗保健服务;综合医院;综合医院",
                "location": {
                    "w": 27.696943,
                    "r": 113.14168999999998,
                    "lng": 113.14169,
                    "lat": 27.696943
                },
                "address": "文明路",
                "tel": "0731-27618777",
                "distance": null
            }, {
                "id": "B0FFFODTZB",
                "name": "株洲县第一人民医院餐馆",
                "type": "餐饮服务;中餐厅;中餐厅",
                "location": {
                    "w": 27.696545,
                    "r": 113.14117099999999,
                    "lng": 113.141171,
                    "lat": 27.696545
                },
                "address": "南江南路48附近",
                "tel": "0731-27627828",
                "distance": null
            }, {
                "id": "B0FFG2S637",
                "name": "株洲县第一人民医院急救中心",
                "type": "医疗保健服务;急救中心;急救中心",
                "location": {
                    "w": 27.696975,
                    "r": 113.141705,
                    "lng": 113.141705,
                    "lat": 27.696975
                },
                "address": "南江南路48附近",
                "tel": "",
                "distance": null
            }, {
                "id": "B02DD0207Y",
                "name": "株洲县第一人民医院工会委员会",
                "type": "医疗保健服务;医疗保健服务场所;医疗保健服务场所",
                "location": {
                    "w": 27.696622,
                    "r": 113.14206999999999,
                    "lng": 113.14207,
                    "lat": 27.696622
                },
                "address": "渌口镇南江南路48号株洲县第一人民医院附近",
                "tel": "",
                "distance": null
            }, {
                "id": "B02DD0207X",
                "name": "中共株洲县第一人民医院总支委员会",
                "type": "医疗保健服务;医疗保健服务场所;医疗保健服务场所",
                "location": {
                    "w": 27.696622,
                    "r": 113.14206999999999,
                    "lng": 113.14207,
                    "lat": 27.696622
                },
                "address": "渌口镇南江南路48号株洲县第一人民医院附近",
                "tel": "",
                "distance": null
            }, {
                "id": "B02DD0120B",
                "name": "株洲县法医检验鉴定中心",
                "type": "政府机构及社会团体;公检法机构;公证鉴定机构",
                "location": {
                    "w": 27.696622,
                    "r": 113.14206999999999,
                    "lng": 113.14207,
                    "lat": 27.696622
                },
                "address": "渌口镇南江南路48号株洲县第一人民医院附近",
                "tel": "0731-27629286",
                "distance": null
            }]
        }, {
            "id": 18012,
            "status": 1,
            "name": "株洲县妇幼保健院",
            "slug": "zhuzhouxianfuyoubaojianyuan",
            "type": 5,
            "poi": [{
                "id": "B02DD0207L",
                "name": "株洲县妇幼保健院",
                "type": "医疗保健服务;专科医院;专科医院",
                "location": {
                    "w": 27.697136,
                    "r": 113.142923,
                    "lng": 113.142923,
                    "lat": 27.697136
                },
                "address": "渌口镇渌口镇文明路2号",
                "tel": "0731-27612100",
                "distance": null
            }, {
                "id": "B0FFFEIZ1T",
                "name": "婴之洋母婴用品店",
                "type": "购物服务;专卖店;儿童用品店",
                "location": {
                    "w": 27.697104,
                    "r": 113.14283999999998,
                    "lng": 113.14284,
                    "lat": 27.697104
                },
                "address": "文明路(靠近株洲县妇幼保健院)",
                "tel": "18890222599",
                "distance": null
            }, {
                "id": "B0FFFVVNTK",
                "name": "妇幼母婴用品",
                "type": "购物服务;专卖店;儿童用品店",
                "location": {
                    "w": 27.69727,
                    "r": 113.14262500000001,
                    "lng": 113.142625,
                    "lat": 27.69727
                },
                "address": "渌口镇文明路22号",
                "tel": "13873344148",
                "distance": null
            }]
        }, {
            "id": 18009,
            "status": 1,
            "name": "湖南株洲县中医院",
            "slug": "hunanzhuzhouxianzhongyiyuan",
            "type": 5,
            "poi": [{
                "id": "B02DD01293",
                "name": "湖南株洲县中医院",
                "type": "医疗保健服务;综合医院;综合医院",
                "location": {
                    "w": 27.706143,
                    "r": 113.144654,
                    "lng": 113.144654,
                    "lat": 27.706143
                },
                "address": "漉浦大道",
                "tel": "0731-27618550",
                "distance": null
            }, {
                "id": "B02DD0R4N9",
                "name": "湖南株洲县中医院-急诊",
                "type": "医疗保健服务;医疗保健服务场所;医疗保健服务场所",
                "location": {
                    "w": 27.706574,
                    "r": 113.14474999999999,
                    "lng": 113.14475,
                    "lat": 27.706574
                },
                "address": "渌口镇石广路1号",
                "tel": "",
                "distance": null
            }, {
                "id": "B0FFFODUK9",
                "name": "湖南株洲县中医院(北门)",
                "type": "医疗保健服务;综合医院;综合医院",
                "location": {
                    "w": 27.706462,
                    "r": 113.144654,
                    "lng": 113.144654,
                    "lat": 27.706462
                },
                "address": "漉浦大道",
                "tel": "",
                "distance": null
            }, {
                "id": "B0FFG6JOHZ",
                "name": "停车场(湖南株洲县中医院东)",
                "type": "交通设施服务;停车场;公共停车场",
                "location": {
                    "w": 27.706475,
                    "r": 113.14453000000003,
                    "lng": 113.14453,
                    "lat": 27.706475
                },
                "address": "漉浦大道6附近",
                "tel": "",
                "distance": null
            }, {
                "id": "B0FFG6JOI2",
                "name": "停车场(湖南株洲县中医院东南)",
                "type": "交通设施服务;停车场;公共停车场",
                "location": {
                    "w": 27.708158,
                    "r": 113.14405899999997,
                    "lng": 113.144059,
                    "lat": 27.708158
                },
                "address": "南江北路26附近",
                "tel": "",
                "distance": null
            }, {
                "id": "B02DD0127A",
                "name": "湖南株洲正骨医院",
                "type": "医疗保健服务;专科医院;骨科医院",
                "location": {
                    "w": 27.706143,
                    "r": 113.144654,
                    "lng": 113.144654,
                    "lat": 27.706143
                },
                "address": "漉浦大道",
                "tel": "",
                "distance": null
            }, {
                "id": "B02DD0223U",
                "name": "湖南省炎陵县中医院",
                "type": "医疗保健服务;综合医院;综合医院",
                "location": {
                    "w": 26.490927,
                    "r": 113.77695900000003,
                    "lng": 113.776959,
                    "lat": 26.490927
                },
                "address": "霞阳镇井岗东路34号",
                "tel": "",
                "distance": null
            }, {
                "id": "B02DD01294",
                "name": "株洲县第一人民医院",
                "type": "医疗保健服务;综合医院;综合医院",
                "location": {
                    "w": 27.696622,
                    "r": 113.14206999999999,
                    "lng": 113.14207,
                    "lat": 27.696622
                },
                "address": "渌口镇南江南路48号",
                "tel": "0731-27618212",
                "distance": null
            }, {
                "id": "B02DD0165A",
                "name": "红蜻蜓(津口西路)",
                "type": "购物服务;服装鞋帽皮具店;品牌鞋店",
                "location": {
                    "w": 27.706527,
                    "r": 113.14356900000001,
                    "lng": 113.143569,
                    "lat": 27.706527
                },
                "address": "漉浦大道(湖南株洲县中医院西)",
                "tel": "",
                "distance": null
            }, {
                "id": "B0FFFX1K20",
                "name": "意大利红蜻蜓",
                "type": "购物服务;服装鞋帽皮具店;服装鞋帽皮具店",
                "location": {
                    "w": 27.705287,
                    "r": 113.145038,
                    "lng": 113.145038,
                    "lat": 27.705287
                },
                "address": "渌口镇漉浦大道(湖南株洲县中医院西)",
                "tel": "",
                "distance": null
            }]
        }, {
            "id": 6153,
            "status": 1,
            "name": "王府井",
            "slug": "wangfujing",
            "type": 6,
            "poi": [{
                "id": "B02DB040BC",
                "name": "王府井百货(黄兴中路店)",
                "type": "购物服务;商场;购物中心",
                "location": {
                    "w": 28.19271376,
                    "r": 112.97586969999998,
                    "lng": 112.97587,
                    "lat": 28.192714
                },
                "address": "黄兴中路27",
                "tel": "0731-84892500;0731-84892666",
                "distance": null
            }, {
                "id": "B0FFG4BUIP",
                "name": "王府井美食广场(王府井百货黄兴中路店)",
                "type": "餐饮服务;中餐厅;中餐厅",
                "location": {
                    "w": 28.192644,
                    "r": 112.97515599999997,
                    "lng": 112.975156,
                    "lat": 28.192644
                },
                "address": "黄兴中路27号B1层",
                "tel": "",
                "distance": null
            }, {
                "id": "B0FFG26IFI",
                "name": "王府井超市",
                "type": "购物服务;超级市场;超市",
                "location": {
                    "w": 28.193247,
                    "r": 112.97527000000002,
                    "lng": 112.97527,
                    "lat": 28.193247
                },
                "address": "黄兴中路27号王府井百货B1楼(近五一广场)",
                "tel": "0731-84892500",
                "distance": null
            }, {
                "id": "B02DB077O8",
                "name": "王府井商业广场",
                "type": "风景名胜;公园广场;城市广场",
                "location": {
                    "w": 28.192223,
                    "r": 112.97606300000001,
                    "lng": 112.976063,
                    "lat": 28.192223
                },
                "address": "黄兴中路13号",
                "tel": "",
                "distance": null
            }, {
                "id": "B02DB05X9Y",
                "name": "王府井商业广场商务楼",
                "type": "商务住宅;楼宇;商务写字楼",
                "location": {
                    "w": 28.191913,
                    "r": 112.975122,
                    "lng": 112.975122,
                    "lat": 28.191913
                },
                "address": "解放西路316号附近",
                "tel": "",
                "distance": null
            }, {
                "id": "B0FFFRG88C",
                "name": "王府井百货(黄兴中路店)停车场",
                "type": "交通设施服务;停车场;专用停车场",
                "location": {
                    "w": 28.191877,
                    "r": 112.97532100000001,
                    "lng": 112.975321,
                    "lat": 28.191877
                },
                "address": "黄兴中路404附近",
                "tel": "",
                "distance": null
            }, {
                "id": "B0FFF5M6W6",
                "name": "王府井百货停车场(解放西路出入口)",
                "type": "交通设施服务;停车场;停车场出入口",
                "location": {
                    "w": 28.193183,
                    "r": 112.97525999999999,
                    "lng": 112.97526,
                    "lat": 28.193183
                },
                "address": "黄兴中路39号附近",
                "tel": "",
                "distance": null
            }, {
                "id": "B0FFFSNY70",
                "name": "长沙王府井尊尚会所",
                "type": "生活服务;美容美发店;美容美发店",
                "location": {
                    "w": 28.192829,
                    "r": 112.976158,
                    "lng": 112.976158,
                    "lat": 28.192829
                },
                "address": "王府井百货影城10楼",
                "tel": "0731-84437552",
                "distance": null
            }, {
                "id": "B0FFFQ6MX0",
                "name": "王府井商业广场商务楼(北门)",
                "type": "商务住宅;楼宇;商务写字楼",
                "location": {
                    "w": 28.191909,
                    "r": 112.97530599999999,
                    "lng": 112.975306,
                    "lat": 28.191909
                },
                "address": "解放西路316号",
                "tel": "",
                "distance": null
            }, {
                "id": "B0FFFFLES0",
                "name": "levi’s长沙王府井店",
                "type": "购物服务;专卖店;专营店",
                "location": {
                    "w": 28.192829,
                    "r": 112.976158,
                    "lng": 112.976158,
                    "lat": 28.192829
                },
                "address": "黄兴中路27王府井百货6层",
                "tel": "",
                "distance": null
            }]
        }, {
            "id": 25653,
            "status": 1,
            "name": "株洲市一医院",
            "slug": "zhuzhoushiyiyiyuan",
            "type": 5,
            "poi": [{
                "id": "B02DD0QDWO",
                "name": "株洲市儿童医院",
                "type": "医疗保健服务;专科医院;专科医院",
                "location": {
                    "w": 27.834693,
                    "r": 113.15170999999998,
                    "lng": 113.15171,
                    "lat": 27.834693
                },
                "address": "车站路128号",
                "tel": "",
                "distance": null
            }, {
                "id": "B02DD0QRZR",
                "name": "株洲市一医院-第三住院楼",
                "type": "医疗保健服务;医疗保健服务场所;医疗保健服务场所",
                "location": {
                    "w": 27.835299,
                    "r": 113.15152,
                    "lng": 113.15152,
                    "lat": 27.835299
                },
                "address": "车站路128株洲市一医院",
                "tel": "",
                "distance": null
            }, {
                "id": "B02DD0QCR5",
                "name": "株洲市一医院-第二住院楼",
                "type": "医疗保健服务;医疗保健服务场所;医疗保健服务场所",
                "location": {
                    "w": 27.835019,
                    "r": 113.15156999999999,
                    "lng": 113.15157,
                    "lat": 27.835019
                },
                "address": "车站路128株洲市一医院",
                "tel": "",
                "distance": null
            }, {
                "id": "B02DD0QDSS",
                "name": "株洲市一医院CT一室",
                "type": "医疗保健服务;医疗保健服务场所;医疗保健服务场所",
                "location": {
                    "w": 27.834724,
                    "r": 113.15153599999996,
                    "lng": 113.151536,
                    "lat": 27.834724
                },
                "address": "车站路128附近",
                "tel": "",
                "distance": null
            }]
        }, {
            "id": 25655,
            "status": 1,
            "name": "中医伤科医院",
            "slug": "zhongyishangkeyiyuan",
            "type": 5,
            "poi": [{
                "id": "B02DD01ZE0",
                "name": "株洲市中医伤科医院",
                "type": "医疗保健服务;专科医院;骨科医院",
                "location": {
                    "w": 27.821992,
                    "r": 113.12784699999997,
                    "lng": 113.127847,
                    "lat": 27.821992
                },
                "address": "圆方路117号",
                "tel": "0731-28828929;0731-28833120",
                "distance": null
            }, {
                "id": "BV10232453",
                "name": "中医伤科医院(公交站)",
                "type": "交通设施服务;公交车站;公交车站相关",
                "location": {
                    "w": 27.822617,
                    "r": 113.12603000000001,
                    "lng": 113.12603,
                    "lat": 27.822617
                },
                "address": "106路(云田专线)空调;T2路;T21路环线;T28路;T40路",
                "tel": "",
                "distance": null
            }, {
                "id": "B02DD0QDUQ",
                "name": "株洲市中医伤科医院住院部",
                "type": "医疗保健服务;诊所;诊所",
                "location": {
                    "w": 27.821856,
                    "r": 113.12775999999997,
                    "lng": 113.12776,
                    "lat": 27.821856
                },
                "address": "圆方路117号株洲市中医伤科医院",
                "tel": "",
                "distance": null
            }, {
                "id": "B02DD0QCOU",
                "name": "株洲市中医伤科医院门诊",
                "type": "医疗保健服务;综合医院;综合医院",
                "location": {
                    "w": 27.82161,
                    "r": 113.12820299999998,
                    "lng": 113.128203,
                    "lat": 27.82161
                },
                "address": "圆方路",
                "tel": "",
                "distance": null
            }, {
                "id": "B02DD0QCSQ",
                "name": "株洲市中医伤科医院急诊",
                "type": "医疗保健服务;医疗保健服务场所;医疗保健服务场所",
                "location": {
                    "w": 27.821804,
                    "r": 113.12827700000003,
                    "lng": 113.128277,
                    "lat": 27.821804
                },
                "address": "圆方路117号株洲市中医伤科医院",
                "tel": "",
                "distance": null
            }, {
                "id": "B0FFFOE02X",
                "name": "株洲市中医伤科医院(东门)",
                "type": "医疗保健服务;专科医院;骨科医院",
                "location": {
                    "w": 27.822008,
                    "r": 113.128288,
                    "lng": 113.128288,
                    "lat": 27.822008
                },
                "address": "圆方路117号",
                "tel": "",
                "distance": null
            }, {
                "id": "B02DD0QQ13",
                "name": "株洲市中医伤科医院牙科",
                "type": "医疗保健服务;诊所;诊所",
                "location": {
                    "w": 27.821653,
                    "r": 113.12835999999999,
                    "lng": 113.12836,
                    "lat": 27.821653
                },
                "address": "圆方路113号",
                "tel": "0731-28811379",
                "distance": null
            }, {
                "id": "B0FFF2EWLT",
                "name": "株洲市中医伤科医院-核磁共振室",
                "type": "医疗保健服务;医疗保健服务场所;医疗保健服务场所",
                "location": {
                    "w": 27.822004,
                    "r": 113.12793999999997,
                    "lng": 113.12794,
                    "lat": 27.822004
                },
                "address": "圆方路117附近",
                "tel": "",
                "distance": null
            }, {
                "id": "B02DD0QFXV",
                "name": "恒信宾馆(圆方路)",
                "type": "住宿服务;宾馆酒店;宾馆酒店|住宿服务;旅馆招待所;旅馆招待所",
                "location": {
                    "w": 27.821697,
                    "r": 113.12876599999998,
                    "lng": 113.128766,
                    "lat": 27.821697
                },
                "address": "中医伤科医院对面",
                "tel": "0731-22282286;18673307835",
                "distance": null
            }, {
                "id": "B02DD0QDLC",
                "name": "新大新超市(圆方路)",
                "type": "购物服务;超级市场;超市",
                "location": {
                    "w": 27.821162,
                    "r": 113.12879499999997,
                    "lng": 113.128795,
                    "lat": 27.821162
                },
                "address": "圆方路中医伤科医院对门",
                "tel": "",
                "distance": null
            }]
        }, {
            "id": 6154,
            "status": 1,
            "name": "平和堂",
            "slug": "pinghetang",
            "type": 6,
            "poi": [{
                "id": "B02DB06IL5",
                "name": "平和堂(五一广场店)",
                "type": "购物服务;商场;普通商场",
                "location": {
                    "w": 28.19466634,
                    "r": 112.97686709999999,
                    "lng": 112.976867,
                    "lat": 28.194666
                },
                "address": "",
                "tel": "",
                "distance": null
            }, {
                "id": "B02DB04EP5",
                "name": "平和堂百货(东塘店)",
                "type": "购物服务;商场;普通商场",
                "location": {
                    "w": 28.170503,
                    "r": 112.99461200000002,
                    "lng": 112.994612,
                    "lat": 28.170503
                },
                "address": "韶山北路488号",
                "tel": "0731-85328000",
                "distance": null
            }, {
                "id": "B02DB0Y2UN",
                "name": "平和堂百货(奥克斯广场店)",
                "type": "购物服务;商场;购物中心",
                "location": {
                    "w": 28.223434,
                    "r": 112.95431300000001,
                    "lng": 112.954313,
                    "lat": 28.223434
                },
                "address": "岳麓大道与银盆南路交汇处",
                "tel": "0731-89738800;0731-89738808",
                "distance": null
            }, {
                "id": "B02DB10HBM",
                "name": "平和堂食品馆",
                "type": "医疗保健服务;医药保健销售店;医疗保健用品",
                "location": {
                    "w": 28.170881,
                    "r": 112.99400700000001,
                    "lng": 112.994007,
                    "lat": 28.170881
                },
                "address": "水院巷47附近",
                "tel": "",
                "distance": null
            }, {
                "id": "B02DB10JCN",
                "name": "平和堂停车场",
                "type": "交通设施服务;停车场;公共停车场",
                "location": {
                    "w": 28.171025,
                    "r": 112.99449400000003,
                    "lng": 112.994494,
                    "lat": 28.171025
                },
                "address": "韶山北路488号",
                "tel": "",
                "distance": null
            }, {
                "id": "B0FFF2K1UD",
                "name": "平和堂药号",
                "type": "医疗保健服务;医药保健销售店;药房",
                "location": {
                    "w": 28.19435,
                    "r": 112.97669000000002,
                    "lng": 112.97669,
                    "lat": 28.19435
                },
                "address": "黄兴中路88号平和堂五一广场店B1层",
                "tel": "",
                "distance": null
            }, {
                "id": "B0FFG5A6ZE",
                "name": "GSTAR平和堂(五一广场店)",
                "type": "购物服务;文化用品店;文化用品店",
                "location": {
                    "w": 28.194846,
                    "r": 112.97728799999999,
                    "lng": 112.977288,
                    "lat": 28.194846
                },
                "address": "黄兴中路88号3F(近五一广场)",
                "tel": "0731-84425046",
                "distance": null
            }, {
                "id": "B0FFG2PI3S",
                "name": "平和堂(五一广场店)停车场",
                "type": "交通设施服务;停车场;公共停车场",
                "location": {
                    "w": 28.194036,
                    "r": 112.97688099999999,
                    "lng": 112.976881,
                    "lat": 28.194036
                },
                "address": "黄兴中路88号平和堂五一广场店",
                "tel": "",
                "distance": null
            }, {
                "id": "B02DB05V84",
                "name": "湖南平和堂商务楼",
                "type": "商务住宅;楼宇;商务写字楼",
                "location": {
                    "w": 28.194478,
                    "r": 112.97712000000001,
                    "lng": 112.97712,
                    "lat": 28.194478
                },
                "address": "五一大道629号",
                "tel": "0731-82918888",
                "distance": null
            }, {
                "id": "B02DB045MG",
                "name": "湖南平和堂生活小区",
                "type": "商务住宅;住宅区;住宅小区",
                "location": {
                    "w": 28.216078,
                    "r": 112.95334100000002,
                    "lng": 112.953341,
                    "lat": 28.216078
                },
                "address": "集贤路103",
                "tel": "",
                "distance": null
            }]
        }, {
            "id": 6157,
            "status": 1,
            "name": "华润万家",
            "slug": "huarunwanjia",
            "type": 6,
            "poi": [{
                "id": "B02DB0XRNC",
                "name": "华润万家(万家丽路)",
                "type": "购物服务;超级市场;华润",
                "location": {
                    "w": 28.168223,
                    "r": 113.02943600000003,
                    "lng": 113.029436,
                    "lat": 28.168223
                },
                "address": "万家丽中路二段8号华晨商业广场购物中心",
                "tel": "",
                "distance": null
            }, {
                "id": "B02DB0TYAM",
                "name": "华润万家(湘府店)",
                "type": "购物服务;超级市场;华润",
                "location": {
                    "w": 28.109929,
                    "r": 113.01871399999999,
                    "lng": 113.018714,
                    "lat": 28.109929
                },
                "address": "湘府东路二段459号",
                "tel": "0731-89759099;0731-89759029;13170418833",
                "distance": null
            }, {
                "id": "B02DB0UVK2",
                "name": "华润万家(世纪金源店)",
                "type": "购物服务;超级市场;华润",
                "location": {
                    "w": 28.251313,
                    "r": 112.97985299999999,
                    "lng": 112.979853,
                    "lat": 28.251313
                },
                "address": "金泰路199号世纪金源时代购物中心G层",
                "tel": "0731-88783023;0731-88783033",
                "distance": null
            }, {
                "id": "B0FFFDPQIJ",
                "name": "华润万家(蔡锷路店)",
                "type": "购物服务;超级市场;华润",
                "location": {
                    "w": 28.20881,
                    "r": 112.98272700000001,
                    "lng": 112.982727,
                    "lat": 28.20881
                },
                "address": "芙蓉中路一段416号泊富国际广场",
                "tel": "",
                "distance": null
            }, {
                "id": "B0FFF4N1UG",
                "name": "华润万家(银盆岭店)",
                "type": "购物服务;超级市场;华润",
                "location": {
                    "w": 28.223942,
                    "r": 112.95415200000002,
                    "lng": 112.954152,
                    "lat": 28.223942
                },
                "address": "银盆南路与岳麓大道交汇处东南角",
                "tel": "",
                "distance": null
            }, {
                "id": "B0FFFREH2Z",
                "name": "华润万家(奥克斯广场店)",
                "type": "购物服务;超级市场;超市",
                "location": {
                    "w": 28.223025,
                    "r": 112.95533,
                    "lng": 112.95533,
                    "lat": 28.223025
                },
                "address": "奥克斯广场B1层(银盆岭路与银双路交汇处)",
                "tel": "0731-85788566",
                "distance": null
            }, {
                "id": "B0FFFGUMAH",
                "name": "华润万家(浏阳环城店)",
                "type": "购物服务;超级市场;华润",
                "location": {
                    "w": 28.157051,
                    "r": 113.62338199999999,
                    "lng": 113.623382,
                    "lat": 28.157051
                },
                "address": "花炮大道开心商业广场1层",
                "tel": "",
                "distance": null
            }, {
                "id": "B0FFF9Z0J3",
                "name": "华润万家(李畋路)",
                "type": "购物服务;超级市场;华润",
                "location": {
                    "w": 27.907826,
                    "r": 113.70397400000002,
                    "lng": 113.703974,
                    "lat": 27.907826
                },
                "address": "李畋路附近",
                "tel": "",
                "distance": null
            }, {
                "id": "B0FFF3UAGG",
                "name": "华润万家生活超市(湘江中路)",
                "type": "购物服务;超级市场;华润",
                "location": {
                    "w": 28.19836,
                    "r": 112.97089599999998,
                    "lng": 112.970896,
                    "lat": 28.19836
                },
                "address": "湘江中路589号B1层",
                "tel": "",
                "distance": null
            }, {
                "id": "B02DB1059Z",
                "name": "华润万家停车场",
                "type": "交通设施服务;停车场;公共停车场",
                "location": {
                    "w": 28.168919,
                    "r": 113.02807999999999,
                    "lng": 113.02808,
                    "lat": 28.168919
                },
                "address": "长沙大道364附近",
                "tel": "",
                "distance": null
            }]
        }, {
            "id": 6159,
            "status": 1,
            "name": "天虹百货",
            "slug": "tianhongbaihuo",
            "type": 6,
            "poi": [{
                "id": "B02DB0TI72",
                "name": "天虹(长沙芙蓉店)",
                "type": "购物服务;商场;商场",
                "location": {
                    "w": 28.135203,
                    "r": 112.98701399999999,
                    "lng": 112.987014,
                    "lat": 28.135203
                },
                "address": "芙蓉南路368号",
                "tel": "0731-85063851;0731-85063800",
                "distance": null
            }, {
                "id": "B0FFFNSG3J",
                "name": "SELECTED思莱德天虹百货店",
                "type": "购物服务;专卖店;专营店",
                "location": {
                    "w": 28.13503,
                    "r": 112.98694699999999,
                    "lng": 112.986947,
                    "lat": 28.13503
                },
                "address": "芙蓉南路368号BOBO天下城天虹百货一楼",
                "tel": "0731-85860350",
                "distance": null
            }, {
                "id": "B02DB0VP2P",
                "name": "百瑞莲休闲吧(天虹百货店)",
                "type": "餐饮服务;餐饮相关场所;餐饮相关",
                "location": {
                    "w": 28.135663,
                    "r": 112.98626200000001,
                    "lng": 112.986262,
                    "lat": 28.135663
                },
                "address": "芙蓉南路368号BOBO天下城CTA财富中心1楼(近湖南电视广播大学)",
                "tel": "18674842726",
                "distance": null
            }, {
                "id": "B02DB0TI6N",
                "name": "肯德基宅急送(天虹百货店)",
                "type": "餐饮服务;快餐厅;肯德基",
                "location": {
                    "w": 28.134966,
                    "r": 112.98701299999999,
                    "lng": 112.987013,
                    "lat": 28.134966
                },
                "address": "芙蓉南路368号BOBO天下城",
                "tel": "4008823823",
                "distance": null
            }, {
                "id": "B02DB0ZKD1",
                "name": "汇美舍(天虹百货店)",
                "type": "购物服务;个人用品/化妆品店;其它个人用品店",
                "location": {
                    "w": 28.134082,
                    "r": 112.98684400000002,
                    "lng": 112.986844,
                    "lat": 28.134082
                },
                "address": "芙蓉南路368号BOBO天下城1楼专柜",
                "tel": "0731-88926803",
                "distance": null
            }, {
                "id": "B0FFF2PDAM",
                "name": "吉盟珠宝(天虹百货店)",
                "type": "购物服务;专卖店;专营店",
                "location": {
                    "w": 28.135054,
                    "r": 112.98683,
                    "lng": 112.98683,
                    "lat": 28.135054
                },
                "address": "芙蓉南路368号天虹百货一楼",
                "tel": "4008866355",
                "distance": null
            }, {
                "id": "B02DB0X5F7",
                "name": "宝岛眼镜(天虹百货店)",
                "type": "购物服务;专卖店;眼镜店",
                "location": {
                    "w": 28.135199,
                    "r": 112.98701399999999,
                    "lng": 112.987014,
                    "lat": 28.135199
                },
                "address": "芙蓉南路368号BOBO天下城天虹百货1层",
                "tel": "",
                "distance": null
            }, {
                "id": "B0FFF315VL",
                "name": "欧莱雅",
                "type": "购物服务;专卖店;专营店",
                "location": {
                    "w": 28.135054,
                    "r": 112.98683,
                    "lng": 112.98683,
                    "lat": 28.135054
                },
                "address": "天虹百货",
                "tel": "",
                "distance": null
            }, {
                "id": "B02DB0ZILA",
                "name": "Baleno(天虹百货店)",
                "type": "购物服务;专卖店;专营店",
                "location": {
                    "w": 28.135054,
                    "r": 112.98683,
                    "lng": 112.98683,
                    "lat": 28.135054
                },
                "address": "芙蓉南路368号天虹百货1楼",
                "tel": "",
                "distance": null
            }, {
                "id": "B02DB0Y26B",
                "name": "星巴克咖啡(长沙芙蓉南路天虹百货店)",
                "type": "餐饮服务;咖啡厅;星巴克咖啡",
                "location": {
                    "w": 28.135134,
                    "r": 112.98680100000001,
                    "lng": 112.986801,
                    "lat": 28.135134
                },
                "address": "芙蓉南路368号天虹超市1层",
                "tel": "0731-84304921",
                "distance": null
            }]
        }, {
            "id": 25651,
            "status": 1,
            "name": "株洲市中医院",
            "slug": "zhuzhoushizhongyiyuan",
            "type": 5,
            "poi": [{
                "id": "B02DD0PRHS",
                "name": "湖南省直中医医院",
                "type": "医疗保健服务;综合医院;综合医院",
                "location": {
                    "w": 27.848069,
                    "r": 113.14579300000003,
                    "lng": 113.145793,
                    "lat": 27.848069
                },
                "address": "人民中路571号",
                "tel": "0731-28222092;0731-28290000;0731-28290020",
                "distance": null
            }, {
                "id": "B02DD01293",
                "name": "湖南株洲县中医院",
                "type": "医疗保健服务;综合医院;综合医院",
                "location": {
                    "w": 27.706143,
                    "r": 113.144654,
                    "lng": 113.144654,
                    "lat": 27.706143
                },
                "address": "漉浦大道",
                "tel": "0731-27618550",
                "distance": null
            }, {
                "id": "B02DD0PP6H",
                "name": "株洲市中心医院",
                "type": "医疗保健服务;综合医院;三级甲等医院",
                "location": {
                    "w": 27.812406,
                    "r": 113.14178600000002,
                    "lng": 113.141786,
                    "lat": 27.812406
                },
                "address": "长江南路116号",
                "tel": "0731-28561163;0731-28219219",
                "distance": null
            }, {
                "id": "B02DD0R4N9",
                "name": "湖南株洲县中医院-急诊",
                "type": "医疗保健服务;医疗保健服务场所;医疗保健服务场所",
                "location": {
                    "w": 27.706574,
                    "r": 113.14474999999999,
                    "lng": 113.14475,
                    "lat": 27.706574
                },
                "address": "渌口镇石广路1号",
                "tel": "",
                "distance": null
            }, {
                "id": "B0FFFODUK9",
                "name": "湖南株洲县中医院(北门)",
                "type": "医疗保健服务;综合医院;综合医院",
                "location": {
                    "w": 27.706462,
                    "r": 113.144654,
                    "lng": 113.144654,
                    "lat": 27.706462
                },
                "address": "漉浦大道",
                "tel": "",
                "distance": null
            }, {
                "id": "B0FFG0PQOK",
                "name": "株洲市中心医院(北门)",
                "type": "医疗保健服务;综合医院;综合医院",
                "location": {
                    "w": 27.813696,
                    "r": 113.141752,
                    "lng": 113.141752,
                    "lat": 27.813696
                },
                "address": "长江南路132附近",
                "tel": "",
                "distance": null
            }, {
                "id": "B02DD0QZRA",
                "name": "株洲市中心医院(东门)",
                "type": "医疗保健服务;医疗保健服务场所;医疗保健服务场所",
                "location": {
                    "w": 27.813967,
                    "r": 113.14164399999999,
                    "lng": 113.141644,
                    "lat": 27.813967
                },
                "address": "泰山路街道",
                "tel": "0731-28561120",
                "distance": null
            },