{
    "data": {
        "landmarks": [{
            "id": 17421,
            "status": 1,
            "name": "湘潭县妇幼保健院",
            "slug": "xiangtanxianfuyoubaojianyuan",
            "type": 5,
            "poi": [{
                "id": "B02DC01860",
                "name": "湘潭县妇幼保健院(云龙中路)",
                "type": "医疗保健服务;专科医院;专科医院",
                "location": {
                    "w": 27.772621,
                    "r": 112.94984699999998,
                    "lng": 112.949847,
                    "lat": 27.772621
                },
                "address": "云龙中路549号",
                "tel": "0731-57803861",
                "distance": null
            }, {
                "id": "B02DC0NP2H",
                "name": "湘潭县妇幼保健院(玉兰南路)",
                "type": "医疗保健服务;专科医院;专科医院",
                "location": {
                    "w": 27.770605,
                    "r": 112.94971700000002,
                    "lng": 112.949717,
                    "lat": 27.770605
                },
                "address": "玉兰南路985号",
                "tel": "",
                "distance": null
            }, {
                "id": "B02DC0OCDS",
                "name": "湘潭县妇幼保健院-急诊",
                "type": "医疗保健服务;医疗保健服务场所;医疗保健服务场所",
                "location": {
                    "w": 27.77253,
                    "r": 112.949971,
                    "lng": 112.949971,
                    "lat": 27.77253
                },
                "address": "云龙中路549号",
                "tel": "",
                "distance": null
            }, {
                "id": "B0FFG341G4",
                "name": "湘潭县妇幼保健院(西北门)",
                "type": "医疗保健服务;专科医院;专科医院",
                "location": {
                    "w": 27.772668,
                    "r": 112.94991600000003,
                    "lng": 112.949916,
                    "lat": 27.772668
                },
                "address": "云龙中路542附近",
                "tel": "",
                "distance": null
            }, {
                "id": "B0FFG340OO",
                "name": "湘潭县妇幼保健院(东北门)",
                "type": "医疗保健服务;专科医院;专科医院",
                "location": {
                    "w": 27.770788,
                    "r": 112.94999999999999,
                    "lng": 112.95,
                    "lat": 27.770788
                },
                "address": "玉兰南路985附近",
                "tel": "",
                "distance": null
            }, {
                "id": "B02DC0NO2R",
                "name": "湘潭县妇幼保健院产科120急救中心",
                "type": "医疗保健服务;急救中心;急救中心",
                "location": {
                    "w": 27.770605,
                    "r": 112.94971700000002,
                    "lng": 112.949717,
                    "lat": 27.770605
                },
                "address": "玉兰南路985号",
                "tel": "0731-57803120",
                "distance": null
            }, {
                "id": "BV10232051",
                "name": "县妇幼保健院(公交站)",
                "type": "交通设施服务;公交车站;公交车站相关",
                "location": {
                    "w": 27.772795,
                    "r": 112.948578,
                    "lng": 112.948578,
                    "lat": 27.772795
                },
                "address": "108路区间",
                "tel": "",
                "distance": null
            }, {
                "id": "B0FFFE0T0K",
                "name": "爱宝贝孕婴童超市(妇幼店)",
                "type": "购物服务;专卖店;儿童用品店",
                "location": {
                    "w": 27.772942,
                    "r": 112.94953399999997,
                    "lng": 112.949534,
                    "lat": 27.772942
                },
                "address": "云龙中路县妇幼保健院对面",
                "tel": "0731-52581578",
                "distance": null
            }, {
                "id": "B0FFFRTZL3",
                "name": "笑笑家妇幼用品批发",
                "type": "购物服务;专卖店;儿童用品店",
                "location": {
                    "w": 27.772938,
                    "r": 112.94955400000003,
                    "lng": 112.949554,
                    "lat": 27.772938
                },
                "address": "云龙中路540号",
                "tel": "13167416861",
                "distance": null
            }, {
                "id": "B0FFFRCS4N",
                "name": "射埠餐馆",
                "type": "餐饮服务;中餐厅;中餐厅",
                "location": {
                    "w": 27.773009,
                    "r": 112.94966299999999,
                    "lng": 112.949663,
                    "lat": 27.773009
                },
                "address": "妇幼保健院(云龙中路)对面",
                "tel": "15197247231",
                "distance": null
            }]
        }, {
            "id": 17406,
            "status": 1,
            "name": "湘潭天易汽车站",
            "slug": "xiangtantianyiqichezhan",
            "type": 8,
            "poi": [{
                "id": "B02DC0187R",
                "name": "天易汽车站",
                "type": "交通设施服务;长途汽车站;长途汽车站",
                "location": {
                    "w": 27.779014,
                    "r": 112.962106,
                    "lng": 112.962106,
                    "lat": 27.779014
                },
                "address": "天易路2",
                "tel": "",
                "distance": null
            }, {
                "id": "BV10231770",
                "name": "天易汽车站(公交站)",
                "type": "交通设施服务;公交车站;公交车站相关",
                "location": {
                    "w": 27.777983,
                    "r": 112.96095300000002,
                    "lng": 112.960953,
                    "lat": 27.777983
                },
                "address": "101路;108路区间",
                "tel": "",
                "distance": null
            }, {
                "id": "B0FFG4JB92",
                "name": "天易汽车站(西北门)",
                "type": "通行设施;建筑物门;建筑物门",
                "location": {
                    "w": 27.779025,
                    "r": 112.962154,
                    "lng": 112.962154,
                    "lat": 27.779025
                },
                "address": "天易路2",
                "tel": "",
                "distance": null
            }, {
                "id": "B0FFG6MSKV",
                "name": "天易汽车站批发部",
                "type": "购物服务;便民商店/便利店;便民商店/便利店",
                "location": {
                    "w": 27.779519,
                    "r": 112.96335699999997,
                    "lng": 112.963357,
                    "lat": 27.779519
                },
                "address": "天易路2-27-28附近",
                "tel": "0731-52583189;0731-57803648",
                "distance": null
            }, {
                "id": "B02DC0NT38",
                "name": "天易汽车站售票厅",
                "type": "生活服务;售票处;长途汽车票代售点",
                "location": {
                    "w": 27.779165,
                    "r": 112.962376,
                    "lng": 112.962376,
                    "lat": 27.779165
                },
                "address": "天易路2",
                "tel": "",
                "distance": null
            }, {
                "id": "B02DC01OKV",
                "name": "湘潭县汽车客货运输有限公司",
                "type": "生活服务;物流速递;物流速递",
                "location": {
                    "w": 27.779438,
                    "r": 112.96262899999999,
                    "lng": 112.962629,
                    "lat": 27.779438
                },
                "address": "易俗河镇天易汽车站一栋一号",
                "tel": "0731-57771638;0731-52624658",
                "distance": null
            }, {
                "id": "B02DC01OI1",
                "name": "天易站批发部",
                "type": "购物服务;便民商店/便利店;便民商店/便利店",
                "location": {
                    "w": 27.779599,
                    "r": 112.96329800000001,
                    "lng": 112.963298,
                    "lat": 27.779599
                },
                "address": "天易路2-32",
                "tel": "0731-52583189",
                "distance": null
            }, {
                "id": "B02DC011GZ",
                "name": "湘潭县道路运输行政执法大队",
                "type": "政府机构及社会团体;交通车辆管理;交通执法站",
                "location": {
                    "w": 27.778937,
                    "r": 112.96166800000003,
                    "lng": 112.961668,
                    "lat": 27.778937
                },
                "address": "天易汽车站",
                "tel": "",
                "distance": null
            }, {
                "id": "B02DC01OKU",
                "name": "耐克森轮胎(天易路)",
                "type": "汽车服务;汽车配件销售;汽车配件销售",
                "location": {
                    "w": 27.778697,
                    "r": 112.96143000000001,
                    "lng": 112.96143,
                    "lat": 27.778697
                },
                "address": "易俗河天易汽车站",
                "tel": "13975338822",
                "distance": null
            }, {
                "id": "B0FFFE3129",
                "name": "鸿威汽车用品批发",
                "type": "汽车服务;汽车养护/装饰;汽车养护|汽车服务;汽车配件销售;汽车配件销售",
                "location": {
                    "w": 27.778674,
                    "r": 112.960872,
                    "lng": 112.960872,
                    "lat": 27.778674
                },
                "address": "易俗河海棠中路天易汽车站对面185号",
                "tel": "13337221760",
                "distance": null
            }]
        }, {
            "id": 17423,
            "status": 1,
            "name": "湘潭县人民医院",
            "slug": "xiangtanxianrenminyiyuan",
            "type": 5,
            "poi": [{
                "id": "B02DC00Y3C",
                "name": "湘潭县人民医院(沿江路)",
                "type": "医疗保健服务;综合医院;综合医院",
                "location": {
                    "w": 27.86127,
                    "r": 112.926289,
                    "lng": 112.926289,
                    "lat": 27.86127
                },
                "address": "观湘门直街(红城公寓西南)",
                "tel": "0731-57822997",
                "distance": null
            }, {
                "id": "B02DC0183N",
                "name": "湘潭县人民医院(花果山路)",
                "type": "医疗保健服务;综合医院;综合医院",
                "location": {
                    "w": 27.767837,
                    "r": 112.95094799999998,
                    "lng": 112.950948,
                    "lat": 27.767837
                },
                "address": "玉兰南路817号",
                "tel": "0731-57885120;0731-57882904",
                "distance": null
            }, {
                "id": "B02DC006C5",
                "name": "湘潭县人民医院乌石分院",
                "type": "医疗保健服务;综合医院;综合医院",
                "location": {
                    "w": 27.663412,
                    "r": 112.66289899999998,
                    "lng": 112.662899,
                    "lat": 27.663412
                },
                "address": "乌石镇瓦子坪",
                "tel": "0731-57538120",
                "distance": null
            }, {
                "id": "B02DC0NYZA",
                "name": "湘潭县人民医院-急诊",
                "type": "医疗保健服务;医疗保健服务场所;医疗保健服务场所",
                "location": {
                    "w": 27.767596,
                    "r": 112.95114999999998,
                    "lng": 112.95115,
                    "lat": 27.767596
                },
                "address": "易俗河",
                "tel": "",
                "distance": null
            }, {
                "id": "B02DC011Q9",
                "name": "湘潭县人民医院停车场",
                "type": "交通设施服务;停车场;公共停车场",
                "location": {
                    "w": 27.768608,
                    "r": 112.95128299999999,
                    "lng": 112.951283,
                    "lat": 27.768608
                },
                "address": "玉兰南路819附近",
                "tel": "",
                "distance": null
            }, {
                "id": "B02DC0NYSY",
                "name": "湘潭县人民医院急诊",
                "type": "医疗保健服务;医疗保健服务场所;医疗保健服务场所",
                "location": {
                    "w": 27.861098,
                    "r": 112.92671000000001,
                    "lng": 112.92671,
                    "lat": 27.861098
                },
                "address": "沿江东路107号湘潭县人民医院",
                "tel": "",
                "distance": null
            }, {
                "id": "B02DC0ODSQ",
                "name": "湘潭县人民医院门诊楼",
                "type": "医疗保健服务;医疗保健服务场所;医疗保健服务场所",
                "location": {
                    "w": 27.76845,
                    "r": 112.95112,
                    "lng": 112.95112,
                    "lat": 27.76845
                },
                "address": "玉兰南路817号",
                "tel": "",
                "distance": null
            }, {
                "id": "B0FFG341S4",
                "name": "湘潭县人民医院(东北门)",
                "type": "医疗保健服务;综合医院;综合医院",
                "location": {
                    "w": 27.768544,
                    "r": 112.951414,
                    "lng": 112.951414,
                    "lat": 27.768544
                },
                "address": "玉兰南路811附近",
                "tel": "",
                "distance": null
            }, {
                "id": "B02DC011QA",
                "name": "湘潭县人民医院食堂",
                "type": "餐饮服务;中餐厅;中餐厅",
                "location": {
                    "w": 27.767983,
                    "r": 112.95018399999998,
                    "lng": 112.950184,
                    "lat": 27.767983
                },
                "address": "易俗河镇玉兰中路432号",
                "tel": "",
                "distance": null
            }, {
                "id": "B0FFF2VYID",
                "name": "湘潭县人民医院-儿科",
                "type": "医疗保健服务;医疗保健服务场所;医疗保健服务场所",
                "location": {
                    "w": 27.767624,
                    "r": 112.95047999999997,
                    "lng": 112.95048,
                    "lat": 27.767624
                },
                "address": "玉兰南路817号",
                "tel": "",
                "distance": null
            }]
        }, {
            "id": 17418,
            "status": 1,
            "name": "湘潭现代医院",
            "slug": "xiangtanxiandaiyiyuan",
            "type": 5,
            "poi": [{
                "id": "B02DC0NORF",
                "name": "湘潭现代医院",
                "type": "医疗保健服务;综合医院;综合医院",
                "location": {
                    "w": 27.774852,
                    "r": 112.95700599999998,
                    "lng": 112.957006,
                    "lat": 27.774852
                },
                "address": "雪松中路52号",
                "tel": "0731-57575555",
                "distance": null
            }, {
                "id": "B0FFG3CK6G",
                "name": "湘潭现代医院(西门)",
                "type": "通行设施;建筑物门;建筑物正门",
                "location": {
                    "w": 27.774892,
                    "r": 112.956816,
                    "lng": 112.956816,
                    "lat": 27.774892
                },
                "address": "雪松中路52号",
                "tel": "",
                "distance": null
            }, {
                "id": "B0FFFE1N28",
                "name": "湘潭现代医院-门诊大楼",
                "type": "医疗保健服务;综合医院;综合医院",
                "location": {
                    "w": 27.774902,
                    "r": 112.95685600000002,
                    "lng": 112.956856,
                    "lat": 27.774902
                },
                "address": "人民医院",
                "tel": "0731-57575555",
                "distance": null
            }, {
                "id": "B02DC0NPC5",
                "name": "唐记食府",
                "type": "餐饮服务;中餐厅;中餐厅",
                "location": {
                    "w": 27.775059,
                    "r": 112.95690000000002,
                    "lng": 112.9569,
                    "lat": 27.775059
                },
                "address": "雪松南路现代医院隔壁",
                "tel": "0731-57882922",
                "distance": null
            }]
        }, {
            "id": 17413,
            "status": 1,
            "name": "湘潭县中医医院",
            "slug": "xiangtanxianzhongyiyiyuan",
            "type": 5,
            "poi": [{
                "id": "B02DC0183Y",
                "name": "湘潭县中医医院",
                "type": "医疗保健服务;综合医院;综合医院",
                "location": {
                    "w": 27.778899,
                    "r": 112.93710099999998,
                    "lng": 112.937101,
                    "lat": 27.778899
                },
                "address": "凤凰西路388号",
                "tel": "0731-57881247;0731-57120120",
                "distance": null
            }, {
                "id": "B02DC0NYZB",
                "name": "湘潭县中医医院-急诊",
                "type": "医疗保健服务;医疗保健服务场所;医疗保健服务场所",
                "location": {
                    "w": 27.779113,
                    "r": 112.93670099999997,
                    "lng": 112.936701,
                    "lat": 27.779113
                },
                "address": "凤凰西路388号",
                "tel": "",
                "distance": null
            }, {
                "id": "B02DC0O9OM",
                "name": "湘潭县中医医院-住院大楼",
                "type": "医疗保健服务;医疗保健服务场所;医疗保健服务场所",
                "location": {
                    "w": 27.779653,
                    "r": 112.93698,
                    "lng": 112.93698,
                    "lat": 27.779653
                },
                "address": "凤凰西路388号",
                "tel": "",
                "distance": null
            }, {
                "id": "B0FFFE5ZOK",
                "name": "湘潭县中医医院发热门诊",
                "type": "医疗保健服务;医疗保健服务场所;医疗保健服务场所",
                "location": {
                    "w": 27.778778,
                    "r": 112.93779,
                    "lng": 112.93779,
                    "lat": 27.778778
                },
                "address": "凤凰西路308附近",
                "tel": "",
                "distance": null
            }, {
                "id": "B02DC014GA",
                "name": "湘潭县中医院白石医院",
                "type": "医疗保健服务;综合医院;综合医院",
                "location": {
                    "w": 27.496751,
                    "r": 112.90665100000001,
                    "lng": 112.906651,
                    "lat": 27.496751
                },
                "address": "107国道附近",
                "tel": "",
                "distance": null
            }, {
                "id": "B0FFG4IYCO",
                "name": "湘潭县中医院白石医院(东南门)",
                "type": "医疗保健服务;综合医院;综合医院",
                "location": {
                    "w": 27.496667,
                    "r": 112.907036,
                    "lng": 112.907036,
                    "lat": 27.496667
                },
                "address": "107国道湘潭县中医院白石医院附近",
                "tel": "",
                "distance": null
            }, {
                "id": "B02DC0NSLS",
                "name": "湘潭县中医院驻石鼓急救站",
                "type": "医疗保健服务;急救中心;急救中心",
                "location": {
                    "w": 27.522068,
                    "r": 112.508759,
                    "lng": 112.508759,
                    "lat": 27.522068
                },
                "address": "025县道附近",
                "tel": "",
                "distance": null
            }, {
                "id": "B02DC0NQD0",
                "name": "湘潭县三医院",
                "type": "医疗保健服务;综合医院;综合医院",
                "location": {
                    "w": 27.554058,
                    "r": 112.928766,
                    "lng": 112.928766,
                    "lat": 27.554058
                },
                "address": "中路铺镇中路铺镇北街8号",
                "tel": "0731-57891273;0731-57890005",
                "distance": null
            }, {
                "id": "B0FFF2NK7H",
                "name": "湘潭县人民医院中医康复大楼",
                "type": "医疗保健服务;医疗保健服务场所;医疗保健服务场所",
                "location": {
                    "w": 27.767967,
                    "r": 112.95088699999997,
                    "lng": 112.950887,
                    "lat": 27.767967
                },
                "address": "人民医院",
                "tel": "",
                "distance": null
            }, {
                "id": "BV10496667",
                "name": "县中医院(公交站)",
                "type": "交通设施服务;公交车站;公交车站相关",
                "location": {
                    "w": 27.778568,
                    "r": 112.93741599999998,
                    "lng": 112.937416,
                    "lat": 27.778568
                },
                "address": "101路;123路",
                "tel": "",
                "distance": null
            }]
        }, {
            "id": 17410,
            "status": 1,
            "name": "湘潭县汽车站",
            "slug": "xiangtanxianqichezhan",
            "type": 8,
            "poi": [{
                "id": "B02DC0NNUY",
                "name": "湘潭县汽车站",
                "type": "交通设施服务;长途汽车站;长途汽车站",
                "location": {
                    "w": 27.780861,
                    "r": 112.941666,
                    "lng": 112.941666,
                    "lat": 27.780861
                },
                "address": "凤凰中路1580号",
                "tel": "0731-57779055;0731-52638259",
                "distance": null
            }, {
                "id": "B02DC0NR58",
                "name": "湘潭县汽车站售票厅",
                "type": "生活服务;售票处;长途汽车票代售点",
                "location": {
                    "w": 27.780736,
                    "r": 112.94224099999997,
                    "lng": 112.942241,
                    "lat": 27.780736
                },
                "address": "凤凰中路1518号",
                "tel": "",
                "distance": null
            }]
        }, {
            "id": 17437,
            "status": 1,
            "name": "湘潭市中心医院",
            "slug": "xiangtanshizhongxinyiyuan",
            "type": 5,
            "poi": [{
                "id": "B02DC00748",
                "name": "湘潭市中心医院",
                "type": "医疗保健服务;综合医院;三级甲等医院",
                "location": {
                    "w": 27.862845,
                    "r": 112.91182200000003,
                    "lng": 112.911822,
                    "lat": 27.862845
                },
                "address": "和平路120号",
                "tel": "0731-58214998;0731-58214965",
                "distance": null
            }, {
                "id": "B02DC01N2I",
                "name": "湘潭市中心医院传染病分院",
                "type": "医疗保健服务;综合医院;综合医院|医疗保健服务;专科医院;传染病医院",
                "location": {
                    "w": 27.886163,
                    "r": 112.89346899999998,
                    "lng": 112.893469,
                    "lat": 27.886163
                },
                "address": "北二环附近",
                "tel": "",
                "distance": null
            }, {
                "id": "B0FFG340MN",
                "name": "湘潭市中心医院(东北门)",
                "type": "通行设施;建筑物门;建筑物正门|医疗保健服务;综合医院;三级甲等医院",
                "location": {
                    "w": 27.862935,
                    "r": 112.91181899999998,
                    "lng": 112.911819,
                    "lat": 27.862935
                },
                "address": "雨湖路120附近",
                "tel": "",
                "distance": null
            }, {
                "id": "B0FFG3D9HI",
                "name": "湘潭市中心医院(东北1门)",
                "type": "医疗保健服务;综合医院;三级甲等医院",
                "location": {
                    "w": 27.863313,
                    "r": 112.91210899999999,
                    "lng": 112.912109,
                    "lat": 27.863313
                },
                "address": "和平路123附近",
                "tel": "",
                "distance": null
            }, {
                "id": "B02DC0NZNZ",
                "name": "湘潭市中心医院门诊部",
                "type": "医疗保健服务;医疗保健服务场所;医疗保健服务场所",
                "location": {
                    "w": 27.863119,
                    "r": 112.912376,
                    "lng": 112.912376,
                    "lat": 27.863119
                },
                "address": "和平路120号",
                "tel": "0731-58214832",
                "distance": null
            }, {
                "id": "B02DC0NKHU",
                "name": "湘潭市中心医院停车场",
                "type": "交通设施服务;停车场;公共停车场",
                "location": {
                    "w": 27.863347,
                    "r": 112.91198600000001,
                    "lng": 112.911986,
                    "lat": 27.863347
                },
                "address": "和平路120号",
                "tel": "",
                "distance": null
            }, {
                "id": "B02DC0NYZ9",
                "name": "湘潭市中心医院急诊部",
                "type": "医疗保健服务;急救中心;急救中心",
                "location": {
                    "w": 27.862931,
                    "r": 112.91291100000001,
                    "lng": 112.912911,
                    "lat": 27.862931
                },
                "address": "和平路120号",
                "tel": "0731-58214122",
                "distance": null
            }, {
                "id": "B02DC0NYQM",
                "name": "湘潭市中心医院住院部",
                "type": "医疗保健服务;医疗保健服务场所;医疗保健服务场所",
                "location": {
                    "w": 27.863054,
                    "r": 112.91233899999997,
                    "lng": 112.912339,
                    "lat": 27.863054
                },
                "address": "和平路120号",
                "tel": "",
                "distance": null
            }, {
                "id": "B0FFFGLHRZ",
                "name": "湘潭市中心医院发热门诊",
                "type": "医疗保健服务;诊所;诊所",
                "location": {
                    "w": 27.863215,
                    "r": 112.91232000000002,
                    "lng": 112.91232,
                    "lat": 27.863215
                },
                "address": "和平路186号",
                "tel": "0731-58220666",
                "distance": null
            }, {
                "id": "B0FFG3CWB6",
                "name": "湘潭市中心医院住院部(西北门)",
                "type": "通行设施;建筑物门;建筑物正门",
                "location": {
                    "w": 27.862969,
                    "r": 112.91208599999999,
                    "lng": 112.912086,
                    "lat": 27.862969
                },
                "address": "和平路122附近",
                "tel": "",
                "distance": null
            }]
        }, {
            "id": 17439,
            "status": 1,
            "name": "湘潭市口腔医院",
            "slug": "xiangtanshikouqiangyiyuan",
            "type": 5,
            "poi": [{
                "id": "B02DC00ZMY",
                "name": "湘潭市口腔医院",
                "type": "医疗保健服务;专科医院;口腔医院",
                "location": {
                    "w": 27.859707,
                    "r": 112.91260499999999,
                    "lng": 112.912605,
                    "lat": 27.859707
                },
                "address": "雨湖路95号",
                "tel": "",
                "distance": null
            }, {
                "id": "B02DC011JJ",
                "name": "湘潭市口腔医院河东分院",
                "type": "医疗保健服务;专科医院;口腔医院",
                "location": {
                    "w": 27.826412,
                    "r": 112.92419000000001,
                    "lng": 112.92419,
                    "lat": 27.826412
                },
                "address": "建设南路387号",
                "tel": "0731-58566677",
                "distance": null
            }, {
                "id": "B0FFG35P44",
                "name": "湘潭市口腔医院(东南门)",
                "type": "通行设施;建筑物门;建筑物正门",
                "location": {
                    "w": 27.85963,
                    "r": 112.91265799999996,
                    "lng": 112.912658,
                    "lat": 27.85963
                },
                "address": "雨湖路95号",
                "tel": "",
                "distance": null
            }, {
                "id": "B02DC01O3E",
                "name": "湘潭市口腔医院门诊部",
                "type": "医疗保健服务;诊所;诊所",
                "location": {
                    "w": 27.807517,
                    "r": 112.92703399999999,
                    "lng": 112.927034,
                    "lat": 27.807517
                },
                "address": "下摄司街168号",
                "tel": "0731-58633904",
                "distance": null
            }, {
                "id": "B02DC0NPNP",
                "name": "湘潭市三医院口腔科",
                "type": "医疗保健服务;诊所;诊所",
                "location": {
                    "w": 27.858809,
                    "r": 112.961479,
                    "lng": 112.961479,
                    "lat": 27.858809
                },
                "address": "板马路20号",
                "tel": "13786290019",
                "distance": null
            }, {
                "id": "B02DC00WTC",
                "name": "湘潭信赖口腔医院",
                "type": "医疗保健服务;专科医院;口腔医院",
                "location": {
                    "w": 27.860197,
                    "r": 112.89141000000001,
                    "lng": 112.89141,
                    "lat": 27.860197
                },
                "address": "韶山西路618号",
                "tel": "0731-52311298",
                "distance": null
            }, {
                "id": "B0FFG218ZA",
                "name": "市口腔医院",
                "type": "医疗保健服务;专科医院;口腔医院",
                "location": {
                    "w": 27.826076,
                    "r": 112.92408999999998,
                    "lng": 112.92409,
                    "lat": 27.826076
                },
                "address": "建设南路88号附近",
                "tel": "",
                "distance": null
            }, {
                "id": "B0FFG342EV",
                "name": "湘潭信赖口腔医院(西南门)",
                "type": "通行设施;建筑物门;建筑物正门",
                "location": {
                    "w": 27.860058,
                    "r": 112.89134100000001,
                    "lng": 112.891341,
                    "lat": 27.860058
                },
                "address": "韶山西路618号",
                "tel": "",
                "distance": null
            }, {
                "id": "B0FFFDRPOQ",
                "name": "湘潭信赖口腔医院分院",
                "type": "医疗保健服务;专科医院;口腔医院",
                "location": {
                    "w": 27.859959,
                    "r": 112.89130799999998,
                    "lng": 112.891308,
                    "lat": 27.859959
                },
                "address": "韶山西路542附近",
                "tel": "",
                "distance": null
            }, {
                "id": "B02DC0NQQX",
                "name": "湘潭信赖口腔医院分院",
                "type": "医疗保健服务;诊所;诊所",
                "location": {
                    "w": 27.776341,
                    "r": 112.946192,
                    "lng": 112.946192,
                    "lat": 27.776341
                },
                "address": "大鹏中路777号",
                "tel": "0731-57779120",
                "distance": null
            }]
        }, {
            "id": 22400,
            "status": 1,
            "name": "三和商务宾馆",
            "slug": "sanheshangwubinguan",
            "type": 3,
            "poi": [{
                "id": "B0FFF5XXMP",
                "name": "三和客房部",
                "type": "住宿服务;住宿服务相关;住宿服务相关",
                "location": {
                    "w": 28.127863,
                    "r": 113.00545999999997,
                    "lng": 113.00546,
                    "lat": 28.127863
                },
                "address": "韶山南路大润发对面井湾子家具城后巷",
                "tel": "0731-85785979;13467875000",
                "distance": null
            }, {
                "id": "B02DB04SIE",
                "name": "三和大酒店",
                "type": "住宿服务;宾馆酒店;四星级宾馆",
                "location": {
                    "w": 28.20512,
                    "r": 112.98873200000003,
                    "lng": 112.988732,
                    "lat": 28.20512
                },
                "address": "营盘路19号",
                "tel": "0731-82862222",
                "distance": null
            }, {
                "id": "B02DB0ZQG4",
                "name": "三和大酒店(南门)",
                "type": "住宿服务;宾馆酒店;四星级宾馆",
                "location": {
                    "w": 28.203928,
                    "r": 112.98880500000001,
                    "lng": 112.988805,
                    "lat": 28.203928
                },
                "address": "营盘路19号",
                "tel": "",
                "distance": null
            }, {
                "id": "B0FFFTBY8N",
                "name": "三和大酒店商务中心",
                "type": "住宿服务;住宿服务相关;住宿服务相关",
                "location": {
                    "w": 28.20511,
                    "r": 112.98861999999997,
                    "lng": 112.98862,
                    "lat": 28.20511
                },
                "address": "营盘东路19号",
                "tel": "",
                "distance": null
            }, {
                "id": "B0FFF2T744",
                "name": "三和旅馆",
                "type": "住宿服务;旅馆招待所;旅馆招待所",
                "location": {
                    "w": 28.136993,
                    "r": 112.94347600000003,
                    "lng": 112.943476,
                    "lat": 28.136993
                },
                "address": "阳光100国际新城对面",
                "tel": "0731-82553001",
                "distance": null
            }, {
                "id": "B02DB0UGPU",
                "name": "三和裤业(榔梨店)",
                "type": "购物服务;服装鞋帽皮具店;服装鞋帽皮具店",
                "location": {
                    "w": 28.181977,
                    "r": 113.11359199999998,
                    "lng": 113.113592,
                    "lat": 28.181977
                },
                "address": "新建路芳圆宾馆附近",
                "tel": "",
                "distance": null
            }, {
                "id": "B0FFF4N086",
                "name": "三和旅馆(麓虹路)",
                "type": "住宿服务;旅馆招待所;旅馆招待所",
                "location": {
                    "w": 28.201034,
                    "r": 112.89148699999998,
                    "lng": 112.891487,
                    "lat": 28.201034
                },
                "address": "枫林三路",
                "tel": "",
                "distance": null
            }, {
                "id": "B02DB0XC4N",
                "name": "天之雨林",
                "type": "生活服务;美容美发店;美容美发店",
                "location": {
                    "w": 28.20469,
                    "r": 112.98852499999998,
                    "lng": 112.988525,
                    "lat": 28.20469
                },
                "address": "营盘东路金山大厦2楼(近三和大酒店)",
                "tel": "",
                "distance": null
            }]
        }, {
            "id": 17433,
            "status": 1,
            "name": "罗源流行广场",
            "slug": "luoyuanliuxingguangchang",
            "type": 6,
            "poi": [{
                "id": "B02DC0NKB4",
                "name": "罗源流行广场",
                "type": "购物服务;商场;普通商场",
                "location": {
                    "w": 27.855635,
                    "r": 112.90781800000002,
                    "lng": 112.907818,
                    "lat": 27.855635
                },
                "address": "雨湖路165号",
                "tel": "",
                "distance": null
            }, {
                "id": "B0FFG340GB",
                "name": "罗源流行广场(东北门)",
                "type": "通行设施;建筑物门;建筑物正门",
                "location": {
                    "w": 27.855736,
                    "r": 112.90781800000002,
                    "lng": 112.907818,
                    "lat": 27.855736
                },
                "address": "雨湖路165号附近",
                "tel": "",
                "distance": null
            }, {
                "id": "B0FFF4LNF8",
                "name": "全民跆拳道馆",
                "type": "体育休闲服务;运动场馆;运动场所",
                "location": {
                    "w": 27.855817,
                    "r": 112.90782000000002,
                    "lng": 112.90782,
                    "lat": 27.855817
                },
                "address": "雨湖路165号罗源流行广场3楼",
                "tel": "",
                "distance": null
            }, {
                "id": "B0FFF2X2NM",
                "name": "易通科技公司",
                "type": "公司企业;公司企业;公司企业",
                "location": {
                    "w": 27.855817,
                    "r": 112.90781600000003,
                    "lng": 112.907816,
                    "lat": 27.855817
                },
                "address": "雨湖路165号罗源流行广场3楼B-5",
                "tel": "",
                "distance": null
            }, {
                "id": "B0FFF03LWJ",
                "name": "鸿尔达女子护肤",
                "type": "生活服务;美容美发店;美容美发店",
                "location": {
                    "w": 27.855817,
                    "r": 112.90782000000002,
                    "lng": 112.90782,
                    "lat": 27.855817
                },
                "address": "雨湖路165号罗源流行广场4楼B4-4",
                "tel": "",
                "distance": null
            }, {
                "id": "B0FFF2KF0H",
                "name": "金锤拍卖有限公司",
                "type": "购物服务;购物相关场所;购物相关场所",
                "location": {
                    "w": 27.855817,
                    "r": 112.90782000000002,
                    "lng": 112.90782,
                    "lat": 27.855817
                },
                "address": "雨湖路165号罗源流行广场4楼B4-3",
                "tel": "",
                "distance": null
            }, {
                "id": "B0FFG9FH9C",
                "name": "何记花甲(雨湖店)",
                "type": "餐饮服务;快餐厅;快餐厅",
                "location": {
                    "w": 27.855864,
                    "r": 112.907959,
                    "lng": 112.907959,
                    "lat": 27.855864
                },
                "address": "雨湖路165号罗源流行广场(一大桥右侧10米,miss酒吧旁边)",
                "tel": "18173256654",
                "distance": null
            }, {
                "id": "B0FFG6QQSC",
                "name": "停车场(大同西路)",
                "type": "交通设施服务;停车场;公共停车场",
                "location": {
                    "w": 27.855936,
                    "r": 112.907803,
                    "lng": 112.907803,
                    "lat": 27.855936
                },
                "address": "雨湖路15附近",
                "tel": "",
                "distance": null
            }]
        }, {
            "id": 17435,
            "status": 1,
            "name": "湘潭康美医院",
            "slug": "xiangtankangmeiyiyuan",
            "type": 5,
            "poi": [{
                "id": "B02DC0NKUX",
                "name": "湘潭康美医院",
                "type": "医疗保健服务;专科医院;妇科医院",
                "location": {
                    "w": 27.862572,
                    "r": 112.90440799999999,
                    "lng": 112.904408,
                    "lat": 27.862572
                },
                "address": "韶山西路9号",
                "tel": "0731-58888120",
                "distance": null
            }, {
                "id": "B0FFF09KY0",
                "name": "湘潭康美医院停车场",
                "type": "交通设施服务;停车场;公共停车场",
                "location": {
                    "w": 27.862481,
                    "r": 112.90455300000002,
                    "lng": 112.904553,
                    "lat": 27.862481
                },
                "address": "韶山西路9附近",
                "tel": "0731-58888120",
                "distance": null
            }, {
                "id": "B0FFG3DNXM",
                "name": "中共湘潭康美医院党支部",
                "type": "医疗保健服务;医疗保健服务场所;医疗保健服务场所",
                "location": {
                    "w": 27.862572,
                    "r": 112.90440799999999,
                    "lng": 112.904408,
                    "lat": 27.862572
                },
                "address": "韶山西路9号",
                "tel": "",
                "distance": null
            }]
        }, {
            "id": 17383,
            "status": 1,
            "name": "红旗购物中心",
            "slug": "hongqigouwuzhongxin",
            "type": 6,
            "poi": [{
                "id": "B02DB0TVEQ",
                "name": "红旗商场",
                "type": "购物服务;商场;普通商场",
                "location": {
                    "w": 28.438646,
                    "r": 113.065855,
                    "lng": 113.065855,
                    "lat": 28.438646
                },
                "address": "新世界广场",
                "tel": "",
                "distance": null
            }]
        }, {
            "id": 17382,
            "status": 1,
            "name": "湘潭市尔康医院",
            "slug": "xiangtanshierkangyiyuan",
            "type": 5,
            "poi": [{
                "id": "B02DC01RAW",
                "name": "湘潭市尔康医院(社建路)",
                "type": "医疗保健服务;综合医院;综合医院",
                "location": {
                    "w": 27.86083,
                    "r": 112.96075400000001,
                    "lng": 112.960754,
                    "lat": 27.86083
                },
                "address": "长潭路175号",
                "tel": "0731-55566120",
                "distance": null
            }, {
                "id": "B0FFG3QADA",
                "name": "湘潭市尔康医院(南门)",
                "type": "医疗保健服务;综合医院;综合医院",
                "location": {
                    "w": 27.860735,
                    "r": 112.96074699999997,
                    "lng": 112.960747,
                    "lat": 27.860735
                },
                "address": "纱厂横街68附近",
                "tel": "",
                "distance": null
            }, {
                "id": "B0FFG2DISG",
                "name": "湘潭市尔康医院腹腔镜宫腔镜手术中心",
                "type": "医疗保健服务;医疗保健服务场所;医疗保健服务场所",
                "location": {
                    "w": 27.860745,
                    "r": 112.961029,
                    "lng": 112.961029,
                    "lat": 27.860745
                },
                "address": "长潭路175号湘潭市尔康医院(社建路)附近",
                "tel": "",
                "distance": null
            }, {
                "id": "B0FFG2VWUH",
                "name": "湘潭市岳塘区湘纺小学印刷厂",
                "type": "公司企业;工厂;工厂",
                "location": {
                    "w": 27.860744,
                    "r": 112.96103,
                    "lng": 112.96103,
                    "lat": 27.860744
                },
                "address": "长潭路175号湘潭市尔康医院(社建路)附近",
                "tel": "0731-52511307",
                "distance": null
            }, {
                "id": "B0FFG1RW2M",
                "name": "湖南省脑科医院指导医院",
                "type": "医疗保健服务;专科医院;脑科医院",
                "location": {
                    "w": 27.860744,
                    "r": 112.96103,
                    "lng": 112.96103,
                    "lat": 27.860744
                },
                "address": "长潭路175号湘潭市尔康医院(社建路)附近",
                "tel": "",
                "distance": null
            }, {
                "id": "B0FFFZ130K",
                "name": "信达电脑",
                "type": "购物服务;家电电子卖场;数码电子",
                "location": {
                    "w": 27.860434,
                    "r": 112.96096,
                    "lng": 112.96096,
                    "lat": 27.860434
                },
                "address": "长潭路175号湘潭市尔康医院(社建路)附近",
                "tel": "13873218885;13762239288",
                "distance": null
            }, {
                "id": "B0FFFOLI8T",
                "name": "香烛",
                "type": "购物服务;专卖店;专营店",
                "location": {
                    "w": 27.860744,
                    "r": 112.96103,
                    "lng": 112.96103,
                    "lat": 27.860744
                },
                "address": "长潭路175号湘潭市尔康医院(社建路)附近",
                "tel": "13574098688;13873297088",
                "distance": null
            }, {
                "id": "B0FFG6QU8U",
                "name": "中国建设银行24小时自助银行(银海路)",
                "type": "金融保险服务;自动提款机;中国建设银行ATM",
                "location": {
                    "w": 27.859632,
                    "r": 112.95884999999998,
                    "lng": 112.95885,
                    "lat": 27.859632
                },
                "address": "纺城大道(尔康医院行政办西南)",
                "tel": "",
                "distance": null
            }]
        }, {
            "id": 17427,
            "status": 1,
            "name": "凯旋国际广场",
            "slug": "kaixuanguojiguangchang",
            "type": 6,
            "poi": [{
                "id": "B02DB10R7L",
                "name": "凯旋国际",
                "type": "商务住宅;楼宇;商住两用楼宇",
                "location": {
                    "w": 28.192297,
                    "r": 113.009949,
                    "lng": 113.009949,
                    "lat": 28.192297
                },
                "address": "车站中路21号",
                "tel": "0731-82943317",
                "distance": null
            }, {
                "id": "B02DB10GR4",
                "name": "鸿运凯旋国际(南门)",
                "type": "商务住宅;楼宇;商务写字楼",
                "location": {
                    "w": 28.19235,
                    "r": 113.00998300000003,
                    "lng": 113.009983,
                    "lat": 28.19235
                },
                "address": "车站中路19附近",
                "tel": "",
                "distance": null
            }, {
                "id": "B02DB0XUI8",
                "name": "凯旋国际B座",
                "type": "商务住宅;楼宇;商务写字楼",
                "location": {
                    "w": 28.192454,
                    "r": 113.01042999999999,
                    "lng": 113.01043,
                    "lat": 28.192454
                },
                "address": "车站中路23附近",
                "tel": "",
                "distance": null
            }, {
                "id": "B02DB05UZ0",
                "name": "鸿运凯旋国际A栋",
                "type": "商务住宅;楼宇;商务写字楼",
                "location": {
                    "w": 28.192597,
                    "r": 113.01002399999999,
                    "lng": 113.010024,
                    "lat": 28.192597
                },
                "address": "车站中路21号",
                "tel": "",
                "distance": null
            }, {
                "id": "B02DB04R6X",
                "name": "凯旋大酒店",
                "type": "住宿服务;宾馆酒店;三星级宾馆",
                "location": {
                    "w": 28.1926,
                    "r": 113.01046100000002,
                    "lng": 113.010461,
                    "lat": 28.1926
                },
                "address": "车站中路21号鸿运凯旋国际大厦B栋",
                "tel": "0731-82807888;15802583313",
                "distance": null
            }, {
                "id": "B02DB05UZ1",
                "name": "鸿运凯旋国际B栋",
                "type": "商务住宅;楼宇;商务写字楼",
                "location": {
                    "w": 28.1926,
                    "r": 113.01046100000002,
                    "lng": 113.010461,
                    "lat": 28.1926
                },
                "address": "车站中路21号",
                "tel": "",
                "distance": null
            }, {
                "id": "B02DB0UH4Q",
                "name": "鸿运凯旋国际停车场(国储商业街)",
                "type": "交通设施服务;停车场;公共停车场",
                "location": {
                    "w": 28.192821,
                    "r": 113.01032900000001,
                    "lng": 113.010329,
                    "lat": 28.192821
                },
                "address": "车站中路229号",
                "tel": "",
                "distance": null
            }, {
                "id": "B02DB05OA0",
                "name": "鸿运凯旋国际停车场(车站中路)",
                "type": "交通设施服务;停车场;公共停车场",
                "location": {
                    "w": 28.192849,
                    "r": 113.00996299999997,
                    "lng": 113.009963,
                    "lat": 28.192849
                },
                "address": "车站中路21号鸿运·凯旋国际大厦",
                "tel": "",
                "distance": null
            }, {
                "id": "B02DB05W1B",
                "name": "凯旋超市",
                "type": "购物服务;便民商店/便利店;便民商店/便利店",
                "location": {
                    "w": 28.19286,
                    "r": 113.01043500000003,
                    "lng": 113.010435,
                    "lat": 28.19286
                },
                "address": "车站中路21号鸿运凯旋国际B栋",
                "tel": "15802583313",
                "distance": null
            }, {
                "id": "B02DB0ZF1V",
                "name": "凯旋中西餐厅",
                "type": "餐饮服务;外国餐厅;西餐厅(综合风味)",
                "location": {
                    "w": 28.192603,
                    "r": 113.01045699999997,
                    "lng": 113.010457,
                    "lat": 28.192603
                },
                "address": "车站中路21号鸿运凯旋国际B栋凯旋大酒店6层",
                "tel": "0731-82800099",
                "distance": null
            }]
        }, {
            "id": 17378,
            "status": 1,
            "name": "湘潭市第六人民医院",
            "slug": "xiangtanshidiliurenminyiyuan",
            "type": 5,
            "poi": [{
                "id": "B02DC00ZDE",
                "name": "湘潭市第六人民医院",
                "type": "医疗保健服务;综合医院;综合医院",
                "location": {
                    "w": 27.842753,
                    "r": 112.93528100000003,
                    "lng": 112.935281,
                    "lat": 27.842753
                },
                "address": "河东大道23号",
                "tel": "0731-52518100",
                "distance": null
            }, {
                "id": "B02DC0NYTC",
                "name": "湘潭市第六人民医院-急诊",
                "type": "医疗保健服务;医疗保健服务场所;医疗保健服务场所",
                "location": {
                    "w": 27.842566,
                    "r": 112.93492100000003,
                    "lng": 112.934921,
                    "lat": 27.842566
                },
                "address": "河东大道668-864附近",
                "tel": "",
                "distance": null
            }, {
                "id": "B02DC00ZDK",
                "name": "湘潭市第六人民医院门诊部",
                "type": "医疗保健服务;诊所;诊所",
                "location": {
                    "w": 27.841812,
                    "r": 112.93574899999999,
                    "lng": 112.935749,
                    "lat": 27.841812
                },
                "address": "第六人民医院(岳塘区水利局西北)附近",
                "tel": "",
                "distance": null
            }, {
                "id": "B02DC0OGOP",
                "name": "湘潭市第六人民医院停车场",
                "type": "交通设施服务;停车场;公共停车场",
                "location": {
                    "w": 27.841054,
                    "r": 112.93534,
                    "lng": 112.93534,
                    "lat": 27.841054
                },
                "address": "河东大道668号-864号附近",
                "tel": "",
                "distance": null
            }, {
                "id": "B0FFF2W2HA",
                "name": "湘潭市第六人民医院-住院部",
                "type": "医疗保健服务;医疗保健服务场所;医疗保健服务场所",
                "location": {
                    "w": 27.842566,
                    "r": 112.93492100000003,
                    "lng": 112.934921,
                    "lat": 27.842566
                },
                "address": "河东大道668-864附近",
                "tel": "",
                "distance": null
            }, {
                "id": "B02DC0NYRW",
                "name": "湘潭市第六人民医院-健康体检中心",
                "type": "医疗保健服务;医疗保健服务场所;医疗保健服务场所",
                "location": {
                    "w": 27.841286,
                    "r": 112.935381,
                    "lng": 112.935381,
                    "lat": 27.841286
                },
                "address": "红旗中路附近",
                "tel": "",
                "distance": null
            }, {
                "id": "B02DC0NYQH",
                "name": "湘潭市第六人民医院康复治疗中心",
                "type": "医疗保健服务;医疗保健服务场所;医疗保健服务场所",
                "location": {
                    "w": 27.840768,
                    "r": 112.935066,
                    "lng": 112.935066,
                    "lat": 27.840768
                },
                "address": "河东大道23号",
                "tel": "",
                "distance": null
            }, {
                "id": "B02DC0NYQL",
                "name": "湘潭市第六人民医院-疔休楼",
                "type": "医疗保健服务;医疗保健服务场所;医疗保健服务场所",
                "location": {
                    "w": 27.842359,
                    "r": 112.93561999999997,
                    "lng": 112.93562,
                    "lat": 27.842359
                },
                "address": "河东大道23附近",
                "tel": "",
                "distance": null
            }, {
                "id": "B0FFG0IKN8",
                "name": "湘潭市第六人民医院-高压氧治疗室",
                "type": "医疗保健服务;医疗保健服务场所;医疗保健服务场所",
                "location": {
                    "w": 27.841798,
                    "r": 112.93549999999999,
                    "lng": 112.9355,
                    "lat": 27.841798
                },
                "address": "红旗中路附近",
                "tel": "",
                "distance": null
            }, {
                "id": "B0FFG3BQ2Q",
                "name": "湘潭市第六人民医院疔休楼(南门)",
                "type": "通行设施;建筑物门;建筑物正门",
                "location": {
                    "w": 27.842427,
                    "r": 112.93561,
                    "lng": 112.93561,
                    "lat": 27.842427
                },
                "address": "河东大道23附近",
                "tel": "",
                "distance": null
            }]
        }, {
            "id": 304,
            "status": 1,
            "name": "湘潭站",
            "slug": "xiangtanzhan",
            "type": 2,
            "poi": [{
                "id": "B02DC00HRU",
                "name": "湘潭站",
                "type": "交通设施服务;火车站;火车站",
                "location": {
                    "w": 27.875471,
                    "r": 112.91294600000003,
                    "lng": 112.912946,
                    "lat": 27.875471
                },
                "address": "车站路556号",
                "tel": "",
                "distance": null
            }, {
                "id": "B02DC0OE3I",
                "name": "湘潭站(南进站口)",
                "type": "交通设施服务;火车站;火车站",
                "location": {
                    "w": 27.875188,
                    "r": 112.91313200000002,
                    "lng": 112.913132,
                    "lat": 27.875188
                },
                "address": "车站路湘潭站",
                "tel": "",
                "distance": null
            }, {
                "id": "B02DC0OE3H",
                "name": "湘潭站(南出站口)",
                "type": "交通设施服务;火车站;火车站",
                "location": {
                    "w": 27.875424,
                    "r": 112.91232400000001,
                    "lng": 112.912324,
                    "lat": 27.875424
                },
                "address": "车站路",
                "tel": "",
                "distance": null
            }, {
                "id": "B02DC0NRLZ",
                "name": "湘潭站售票处",
                "type": "生活服务;售票处;火车票代售点",
                "location": {
                    "w": 27.874998,
                    "r": 112.91385100000002,
                    "lng": 112.913851,
                    "lat": 27.874998
                },
                "address": "车站路",
                "tel": "",
                "distance": null
            }, {
                "id": "B0FFFFRN7E",
                "name": "湘潭站售票处",
                "type": "生活服务;售票处;火车票代售点",
                "location": {
                    "w": 27.874707,
                    "r": 112.91396299999997,
                    "lng": 112.913963,
                    "lat": 27.874707
                },
                "address": "车站路附近",
                "tel": "",
                "distance": null
            }, {
                "id": "B02DC00749",
                "name": "湘潭西站",
                "type": "交通设施服务;长途汽车站;长途汽车站",
                "location": {
                    "w": 27.85716,
                    "r": 112.886033,
                    "lng": 112.886033,
                    "lat": 27.85716
                },
                "address": "韶山西路",
                "tel": "",
                "distance": null
            }, {
                "id": "B02DC0183K",
                "name": "湘潭汽车站",
                "type": "交通设施服务;长途汽车站;长途汽车站",
                "location": {
                    "w": 27.862795,
                    "r": 112.906788,
                    "lng": 112.906788,
                    "lat": 27.862795
                },
                "address": "韶山中路99号",
                "tel": "0731-58208789",
                "distance": null
            }, {
                "id": "B02DC0OGS4",
                "name": "湘潭东站",
                "type": "交通设施服务;火车站;火车站",
                "location": {
                    "w": 27.857666,
                    "r": 112.97397799999999,
                    "lng": 112.973978,
                    "lat": 27.857666
                },
                "address": "Z003县道",
                "tel": "",
                "distance": null
            }, {
                "id": "BV10546348",
                "name": "湘潭(民航售票处)(公交站)",
                "type": "交通设施服务;公交车站;公交车站相关",
                "location": {
                    "w": 27.860395,
                    "r": 112.89691900000003,
                    "lng": 112.896919,
                    "lat": 27.860395
                },
                "address": "机场大巴湘潭线",
                "tel": "",
                "distance": null
            }, {
                "id": "B02DC007B8",
                "name": "湘潭汽车东站",
                "type": "交通设施服务;长途汽车站;长途汽车站",
                "location": {
                    "w": 27.831358,
                    "r": 112.95776000000001,
                    "lng": 112.95776,
                    "lat": 27.831358
                },
                "address": "芙蓉东路108号",
                "tel": "0731-58580362",
                "distance": null
            }]
        }, {
            "id": 17373,
            "status": 1,
            "name": "银海广场",
            "slug": "yinhaiguangchang",
            "type": 6,
            "poi": [{
                "id": "B02DB04UUN",
                "name": "银海大厦(建湘路)",
                "type": "商务住宅;楼宇;商务写字楼",
                "location": {
                    "w": 28.199962,
                    "r": 112.98505999999998,
                    "lng": 112.98506,
                    "lat": 28.199962
                },
                "address": "建湘路282号",
                "tel": "",
                "distance": null
            }, {
                "id": "B02DB0UQ17",
                "name": "银海歌厅",
                "type": "体育休闲服务;娱乐场所;KTV",
                "location": {
                    "w": 28.199962,
                    "r": 112.98505999999998,
                    "lng": 112.98506,
                    "lat": 28.199962
                },
                "address": "建湘路282银海大厦11层",
                "tel": "",
                "distance": null
            }, {
                "id": "B0FFFQ07IS",
                "name": "银海大厦(西门)",
                "type": "商务住宅;住宅区;住宅小区",
                "location": {
                    "w": 28.199953,
                    "r": 112.98494399999998,
                    "lng": 112.984944,
                    "lat": 28.199953
                },
                "address": "建湘路282号",
                "tel": "",
                "distance": null
            }, {
                "id": "B02DB0UOWU",
                "name": "银海家庭旅馆",
                "type": "住宿服务;旅馆招待所;旅馆招待所",
                "location": {
                    "w": 28.199962,
                    "r": 112.98505999999998,
                    "lng": 112.98506,
                    "lat": 28.199962
                },
                "address": "建湘路282银海大厦5层505室",
                "tel": "0731-83595872",
                "distance": null
            }, {
                "id": "B0FFFIHM9V",
                "name": "长沙银海客房",
                "type": "住宿服务;住宿服务相关;住宿服务相关",
                "location": {
                    "w": 28.19995,
                    "r": 112.98496999999998,
                    "lng": 112.98497,
                    "lat": 28.19995
                },
                "address": "建湘北路282号505室",
                "tel": "18670381646",
                "distance": null
            }, {
                "id": "B0FFF4U5EN",
                "name": "春源私房菜银海分店",
                "type": "餐饮服务;中餐厅;中餐厅",
                "location": {
                    "w": 28.199962,
                    "r": 112.98496599999999,
                    "lng": 112.984966,
                    "lat": 28.199962
                },
                "address": "建湘路282号银海大厦M层",
                "tel": "0731-82802508",
                "distance": null
            }, {
                "id": "B0FFF4J94R",
                "name": "温馨家庭旅馆(长沙银海店)",
                "type": "住宿服务;住宿服务相关;住宿服务相关",
                "location": {
                    "w": 28.199777,
                    "r": 112.98536999999999,
                    "lng": 112.98537,
                    "lat": 28.199777
                },
                "address": "芙蓉中路一段512号银海大厦M楼",
                "tel": "18774938813",
                "distance": null
            }, {
                "id": "B0FFFFPAW9",
                "name": "索菲亚美容港(银海店)",
                "type": "生活服务;生活服务场所;生活服务场所",
                "location": {
                    "w": 28.199878,
                    "r": 112.98517600000002,
                    "lng": 112.985176,
                    "lat": 28.199878
                },
                "address": "建湘路282附近",
                "tel": "",
                "distance": null
            }, {
                "id": "B02DB0XW04",
                "name": "本源工作餐",
                "type": "餐饮服务;快餐厅;快餐厅",
                "location": {
                    "w": 28.199962,
                    "r": 112.98496599999999,
                    "lng": 112.984966,
                    "lat": 28.199962
                },
                "address": "建湘路银海大厦2楼(近中天广场)",
                "tel": "0731-88877888",
                "distance": null
            }, {
                "id": "B02DB04PP4",
                "name": "湖南鹏通律师事务所",
                "type": "生活服务;事务所;律师事务所",
                "location": {
                    "w": 28.199962,
                    "r": 112.98505999999998,
                    "lng": 112.98506,
                    "lat": 28.199962
                },
                "address": "建湘路282银海大厦1805",
                "tel": "0731-84406777",
                "distance": null
            }]
        }, {
            "id": 17449,
            "status": 1,
            "name": "湘潭阿波罗医院",
            "slug": "xiangtanaboluoyiyuan",
            "type": 5,
            "poi": [{
                "id": "B02DC01QW7",
                "name": "湘潭阿波罗医院",
                "type": "医疗保健服务;专科医院;专科医院",
                "location": {
                    "w": 27.869938,
                    "r": 112.91214000000002,
                    "lng": 112.91214,
                    "lat": 27.869938
                },
                "address": "车站路500号",
                "tel": "0731-52627777;0731-55586788",
                "distance": null
            }, {
                "id": "B0FFG3BPUC",
                "name": "湘潭阿波罗医院(西门)",
                "type": "通行设施;建筑物门;建筑物正门",
                "location": {
                    "w": 27.869959,
                    "r": 112.91201799999999,
                    "lng": 112.912018,
                    "lat": 27.869959
                },
                "address": "车站路500号",
                "tel": "",
                "distance": null
            }]
        }, {
            "id": 14331,
            "status": 1,
            "name": "鑫隆大酒店",
            "slug": "xinlongdajiudian",
            "type": 3,
            "poi": [{
                "id": "B02DB0X1JI",
                "name": "鑫隆宾馆(长沙三里垅店)",
                "type": "住宿服务;宾馆酒店;宾馆酒店",
                "location": {
                    "w": 28.212291,
                    "r": 112.91223500000001,
                    "lng": 112.912235,
                    "lat": 28.212291
                },
                "address": "望城坡三里垅26栋101号",
                "tel": "15116235819;13077318316",
                "distance": null
            }, {
                "id": "B0FFF2WJB1",
                "name": "鑫隆家庭宾馆",
                "type": "住宿服务;宾馆酒店;宾馆酒店",
                "location": {
                    "w": 28.234913,
                    "r": 113.00984,
                    "lng": 113.00984,
                    "lat": 28.234913
                },
                "address": "四方坪商贸城A3栋",
                "tel": "18273131786",
                "distance": null
            }, {
                "id": "B0FFFEC3YA",
                "name": "长沙鑫隆宾馆(黎托店)",
                "type": "住宿服务;住宿服务相关;住宿服务相关",
                "location": {
                    "w": 28.1718,
                    "r": 113.060362,
                    "lng": 113.060362,
                    "lat": 28.1718
                },
                "address": "长沙黎托乡合丰安置小区A5栋三单元二楼",
                "tel": "",
                "distance": null
            }]
        }, {
            "id": 2226,
            "status": 1,
            "name": "湖南理工职业技术学院",
            "slug": "hunanligongzhiyejishuxueyuan",
            "type": 1,
            "poi": [{
                "id": "B02DC00YYX",
                "name": "湖南理工职业技术学院",
                "type": "科教文化服务;学校;职业技术学校",
                "location": {
                    "w": 27.836675,
                    "r": 112.92130800000001,
                    "lng": 112.921308,
                    "lat": 27.836675
                },
                "address": "河东大道10号",
                "tel": "",
                "distance": null
            }, {
                "id": "B02DC01QJU",
                "name": "湖南理工职业技术学院(南门)",
                "type": "科教文化服务;学校;高等院校",
                "location": {
                    "w": 27.835531,
                    "r": 112.92154399999998,
                    "lng": 112.921544,
                    "lat": 27.835531
                },
                "address": "河东大道10号",
                "tel": "",
                "distance": null
            }, {
                "id": "B0FFF7R0PP",
                "name": "湖南理工职业技术学院3号楼",
                "type": "地名地址信息;门牌信息;楼栋号",
                "location": {
                    "w": 27.836481,
                    "r": 112.92242799999997,
                    "lng": 112.922428,
                    "lat": 27.836481
                },
                "address": "",
                "tel": "",
                "distance": null
            }, {
                "id": "B02DC0NXWB",
                "name": "湖南理工职业技术学院图书馆",
                "type": "科教文化服务;图书馆;图书馆",
                "location": {
                    "w": 27.838063,
                    "r": 112.92266799999999,
                    "lng": 112.922668,
                    "lat": 27.838063
                },
                "address": "河东大道10号湖南理工职业技术学院",
                "tel": "",
                "distance": null
            }, {
                "id": "B0FFF7R0PR",
                "name": "湖南理工职业技术学院4号楼",
                "type": "地名地址信息;门牌信息;楼栋号",
                "location": {
                    "w": 27.836113,
                    "r": 112.92213300000003,
                    "lng": 112.922133,
                    "lat": 27.836113
                },
                "address": "",
                "tel": "",
                "distance": null
            }, {
                "id": "B0FFF7R0PQ",
                "name": "湖南理工职业技术学院5号楼",
                "type": "地名地址信息;门牌信息;楼栋号",
                "location": {
                    "w": 27.836324,
                    "r": 112.922101,
                    "lng": 112.922101,
                    "lat": 27.836324
                },
                "address": "",
                "tel": "",
                "distance": null
            }, {
                "id": "B0FFF7R0PL",
                "name": "湖南理工职业技术学院7号楼",
                "type": "地名地址信息;门牌信息;楼栋号",
                "location": {
                    "w": 27.836965,
                    "r": 112.922144,
                    "lng": 112.922144,
                    "lat": 27.836965
                },
                "address": "",
                "tel": "",
                "distance": null
            }, {
                "id": "B02DC0NXWA",
                "name": "湖南理工职业技术学院体育馆",
                "type": "体育休闲服务;运动场馆;运动场所",
                "location": {
                    "w": 27.837823,
                    "r": 112.92208,
                    "lng": 112.92208,
                    "lat": 27.837823
                },
                "address": "河东大道",
                "tel": "0731-58520170",
                "distance": null
            }, {
                "id": "B02DC01QV8",
                "name": "湖南理工职业技术学院北院",
                "type": "科教文化服务;学校;职业技术学校",
                "location": {
                    "w": 27.840219,
                    "r": 112.92387200000002,
                    "lng": 112.923872,
                    "lat": 27.840219
                },
                "address": "湘潭河东大道煤机厂正对面",
                "tel": "",
                "distance": null
            }, {
                "id": "B0FFG3CD4X",
                "name": "湖南理工职业技术学院2食堂",
                "type": "餐饮服务;中餐厅;中餐厅",
                "location": {
                    "w": 27.837963,
                    "r": 112.92218600000001,
                    "lng": 112.922186,
                    "lat": 27.837963
                },
                "address": "河东大道10号湖南理工职业技术学院图书馆附近",
                "tel": "",
                "distance": null
            }]
        }, {
            "id": 17366,
            "status": 1,
            "name": "岳塘龙建内科诊所",
            "slug": "yuetanglongjianneikezhensuo",
            "type": 5,
            "poi": [{
                "id": "B0FFF2C1T6",
                "name": "岳塘龙建内科诊所",
                "type": "医疗保健服务;诊所;诊所",
                "location": {
                    "w": 27.8572,
                    "r": 112.95751000000001,
                    "lng": 112.95751,
                    "lat": 27.8572
                },
                "address": "纱厂直街93号附近",
                "tel": "",
                "distance": null
            }]
        }, {
            "id": 2227,
            "status": 1,
            "name": "湘潭教育学院",
            "slug": "xiangtanjiaoyuxueyuan",
            "type": 1,
            "poi": [{
                "id": "B02DC00BPP",
                "name": "湘潭教育学院",
                "type": "科教文化服务;学校;高等院校",
                "location": {
                    "w": 27.860651,
                    "r": 112.911449,
                    "lng": 112.911449,
                    "lat": 27.860651
                },
                "address": "文化街45号",
                "tel": "0731-58292056;0731-58261857",
                "distance": null
            }, {
                "id": "B02DC01O3R",
                "name": "湘潭教育学院(西南门)",
                "type": "科教文化服务;学校;高等院校",
                "location": {
                    "w": 27.860331,
                    "r": 112.91127699999998,
                    "lng": 112.911277,
                    "lat": 27.860331
                },
                "address": "文化街45号",
                "tel": "",
                "distance": null
            }, {
                "id": "B0FFG1NC3Y",
                "name": "湘潭教育学院(东门)",
                "type": "科教文化服务;学校;高等院校",
                "location": {
                    "w": 27.86036,
                    "r": 112.91125999999997,
                    "lng": 112.91126,
                    "lat": 27.86036
                },
                "address": "文化街45号",
                "tel": "",
                "distance": null
            }, {
                "id": "B02DC0OM8P",
                "name": "湘潭教育学院艺术学校",
                "type": "科教文化服务;学校;学校",
                "location": {
                    "w": 27.860515,
                    "r": 112.91128700000002,
                    "lng": 112.911287,
                    "lat": 27.860515
                },
                "address": "文化街45号",
                "tel": "",
                "distance": null
            }, {
                "id": "B0FFG2QA82",
                "name": "湘潭教育学院外教授课点",
                "type": "科教文化服务;科教文化场所;科教文化场所",
                "location": {
                    "w": 27.628363,
                    "r": 112.789244,
                    "lng": 112.789244,
                    "lat": 27.628363
                },
                "address": "021县道附近",
                "tel": "",
                "distance": null
            }]
        }, {
            "id": 2224,
            "status": 1,
            "name": "湖南工程学院",
            "slug": "hunangongchengxueyuan",
            "type": 1,
            "poi": [{
                "id": "B02DC0NCIK",
                "name": "湖南工程学院",
                "type": "科教文化服务;学校;高等院校",
                "location": {
                    "w": 27.845184,
                    "r": 112.93235500000003,
                    "lng": 112.932355,
                    "lat": 27.845184
                },
                "address": "福星东路88号",
                "tel": "0731-58688500;0731-58688511",
                "distance": null
            }, {
                "id": "BV10502909",
                "name": "湖南工程学院(公交站)",
                "type": "交通设施服务;公交车站;公交车站相关",
                "location": {
                    "w": 27.844513,
                    "r": 112.93357800000001,
                    "lng": 112.933578,
                    "lat": 27.844513
                },
                "address": "19路",
                "tel": "",
                "distance": null
            }, {
                "id": "B02DC0NC9V",
                "name": "湖南工程学院",
                "type": "科教文化服务;学校;高等院校",
                "location": {
                    "w": 27.812765,
                    "r": 112.92773999999997,
                    "lng": 112.92774,
                    "lat": 27.812765
                },
                "address": "下摄司街",
                "tel": "",
                "distance": null
            }, {
                "id": "B0FFG6QQXG",
                "name": "湖南工程学院(主校区)",
                "type": "科教文化服务;学校;高等院校",
                "location": {
                    "w": 27.844822,
                    "r": 112.924195,
                    "lng": 112.924195,
                    "lat": 27.844822
                },
                "address": "学海路附近",
                "tel": "",
                "distance": null
            }, {
                "id": "B02DC017TT",
                "name": "湖南工程学院(南门)",
                "type": "科教文化服务;学校;高等院校",
                "location": {
                    "w": 27.844613,
                    "r": 112.93282099999999,
                    "lng": 112.932821,
                    "lat": 27.844613
                },
                "address": "东湖路",
                "tel": "0731-58688500",
                "distance": null
            }, {
                "id": "B02DC001AC",
                "name": "湖南工程学院(北门)",
                "type": "科教文化服务;学校;高等院校",
                "location": {
                    "w": 27.847617,
                    "r": 112.92330900000002,
                    "lng": 112.923309,
                    "lat": 27.847617
                },
                "address": "东湖路88号",
                "tel": "0731-58688500",
                "distance": null
            }, {
                "id": "B02DC011B8",
                "name": "湖南工程学院(西南门)",
                "type": "科教文化服务;学校;高等院校",
                "location": {
                    "w": 27.812518,
                    "r": 112.925342,
                    "lng": 112.925342,
                    "lat": 27.812518
                },
                "address": "书院路17号",
                "tel": "",
                "distance": null
            }, {
                "id": "B02DC00ZAX",
                "name": "湖南工程学院餐馆",
                "type": "餐饮服务;中餐厅;中餐厅",
                "location": {
                    "w": 27.845687,
                    "r": 112.92364399999997,
                    "lng": 112.923644,
                    "lat": 27.845687
                },
                "address": "东湖路18号",
                "tel": "",
                "distance": null
            }, {
                "id": "B02DC0OM5K",
                "name": "湖南工程学院分院",
                "type": "科教文化服务;学校;高等院校",
                "location": {
                    "w": 27.847585,
                    "r": 112.92355399999997,
                    "lng": 112.923554,
                    "lat": 27.847585
                },
                "address": "东湖路",
                "tel": "0731-58688500",
                "distance": null
            }, {
                "id": "B02DC01P0R",
                "name": "湖南工程学院干洗中心",
                "type": "生活服务;洗衣店;洗衣店",
                "location": {
                    "w": 27.812901,
                    "r": 112.92508700000002,
                    "lng": 112.925087,
                    "lat": 27.812901
                },
                "address": "下摄司街376号",
                "tel": "",
                "distance": null
            }]
        }, {
            "id": 17443,
            "status": 1,
            "name": "湘潭丽人医院",
            "slug": "xiangtanlirenyiyuan",
            "type": 5,
            "poi": [{
                "id": "B02DC0NKVL",
                "name": "湘潭丽人医院",
                "type": "医疗保健服务;综合医院;综合医院",
                "location": {
                    "w": 27.865543,
                    "r": 112.92107399999998,
                    "lng": 112.921074,
                    "lat": 27.865543
                },
                "address": "熙春路",
                "tel": "0731-58392222",
                "distance": null
            }, {
                "id": "B0FFG343CU",
                "name": "湘潭丽人医院(西门)",
                "type": "通行设施;建筑物门;建筑物正门",
                "location": {
                    "w": 27.865511,
                    "r": 112.92100399999998,
                    "lng": 112.921004,
                    "lat": 27.865511
                },
                "address": "泗洲路24附近",
                "tel": "",
                "distance": null
            }, {
                "id": "B0FFFRMZUV",
                "name": "湘潭丽人医院妇科中心_湘潭妇科医院",
                "type": "医疗保健服务;医疗保健服务场所;医疗保健服务场所",
                "location": {
                    "w": 27.865554,
                    "r": 112.92090100000001,
                    "lng": 112.920901,
                    "lat": 27.865554
                },
                "address": "泗洲路163号附近",
                "tel": "",
                "distance": null
            }, {
                "id": "B0FFFS50OF",
                "name": "君品味家菜馆(建成路)",
                "type": "餐饮服务;中餐厅;中餐厅",
                "location": {
                    "w": 27.866648,
                    "r": 112.92069900000001,
                    "lng": 112.920699,
                    "lat": 27.866648
                },
                "address": "熙春路和泗洲路交叉口(丽人医院后面)",
                "tel": "13973275535",
                "distance": null
            }, {
                "id": "B0FFF3RY8G",
                "name": "惠美数码喷画",
                "type": "购物服务;家电电子卖场;家电电子卖场",
                "location": {
                    "w": 27.864938,
                    "r": 112.92120699999998,
                    "lng": 112.921207,
                    "lat": 27.864938
                },
                "address": "熙春路金荣广场B栋1号(近丽人医院)",
                "tel": "13973249327",
                "distance": null
            }, {
                "id": "B0FFF2TU4I",
                "name": "百莲凯国际美容美体馆",
                "type": "生活服务;美容美发店;美容美发店",
                "location": {
                    "w": 27.860111,
                    "r": 112.912193,
                    "lng": 112.912193,
                    "lat": 27.860111
                },
                "address": "中心医院后门(口腔医院直入)五景花园小区大门右边",
                "tel": "0731-55882188",
                "distance": null
            }, {
                "id": "B0FFFPU30A",
                "name": "香港羽茜.法缇娅美容养生会所(可妍店)",
                "type": "生活服务;美容美发店;美容美发店",
                "location": {
                    "w": 27.866688,
                    "r": 112.91994999999997,
                    "lng": 112.91995,
                    "lat": 27.866688
                },
                "address": "泗州路15号门面(悦馨和贝丽康宠物医院中间)",
                "tel": "0731-55566118",
                "distance": null
            }]
        }, {
            "id": 2231,
            "status": 1,
            "name": "湖南工程学院应用技术学院",
            "slug": "hunangongchengxueyuanyingyongjishuxueyuan",
            "type": 1
        }, {
            "id": 2228,
            "status": 1,
            "name": "湘潭职业技术学院",
            "slug": "xiangtanzhiyejishuxueyuan",
            "type": 1,
            "poi": [{
                "id": "B02DC007B9",
                "name": "湘潭职业技术学院",
                "type": "科教文化服务;学校;职业技术学校",
                "location": {
                    "w": 27.840921,
                    "r": 112.947969,
                    "lng": 112.947969,
                    "lat": 27.840921
                },
                "address": "丝绸中路6号",
                "tel": "",
                "distance": null
            }, {
                "id": "BV10231936",
                "name": "湘潭职业技术学院(公交站)",
                "type": "交通设施服务;公交车站;公交车站相关",
                "location": {
                    "w": 27.840099,
                    "r": 112.947449,
                    "lng": 112.947449,
                    "lat": 27.840099
                },
                "address": "21路;25路内环;25路外环;107路;116路",
                "tel": "",
                "distance": null
            }, {
                "id": "BV10477753",
                "name": "湘潭职业技术学院(公交站)",
                "type": "交通设施服务;公交车站;公交车站相关",
                "location": {
                    "w": 27.88092,
                    "r": 112.878197,
                    "lng": 112.878197,
                    "lat": 27.88092
                },
                "address": "107路",
                "tel": "",
                "distance": null
            }, {
                "id": "B02DC01QJS",
                "name": "湘潭职业技术学院(西门)",
                "type": "科教文化服务;学校;高等院校",
                "location": {
                    "w": 27.840853,
                    "r": 112.947589,
                    "lng": 112.947589,
                    "lat": 27.840853
                },
                "address": "双拥中路198号",
                "tel": "",
                "distance": null
            }, {
                "id": "B02DC0NXVJ",
                "name": "湘潭职业技术学院-图书馆",
                "type": "科教文化服务;图书馆;图书馆",
                "location": {
                    "w": 27.841105,
                    "r": 112.94996000000003,
                    "lng": 112.94996,
                    "lat": 27.841105
                },
                "address": "双拥中路",
                "tel": "0731-58228438",
                "distance": null
            }, {
                "id": "B0FFG8LLB3",
                "name": "湘潭医卫职业技术学院",
                "type": "科教文化服务;学校;职业技术学校",
                "location": {
                    "w": 27.840849,
                    "r": 112.94806800000003,
                    "lng": 112.948068,
                    "lat": 27.840849
                },
                "address": "丝绸中路6号",
                "tel": "0731-58519123",
                "distance": null
            }, {
                "id": "B02DC01P40",
                "name": "湘潭职业技术学院医学院",
                "type": "科教文化服务;学校;职业技术学校",
                "location": {
                    "w": 27.862521,
                    "r": 112.91377399999999,
                    "lng": 112.913774,
                    "lat": 27.862521
                },
                "address": "和平路54号",
                "tel": "0731-58391017",
                "distance": null
            }, {
                "id": "B0FFG6FCQY",
                "name": "共青团湘潭职业技术学院委员会",
                "type": "科教文化服务;学校;职业技术学校",
                "location": {
                    "w": 27.843042,
                    "r": 112.94945200000001,
                    "lng": 112.949452,
                    "lat": 27.843042
                },
                "address": "河东大道121附近",
                "tel": "",
                "distance": null
            }, {
                "id": "B0FFG341B4",
                "name": "湘潭职业技术学院第二教学楼(西门)",
                "type": "通行设施;建筑物门;建筑物正门",
                "location": {
                    "w": 27.842173,
                    "r": 112.949791,
                    "lng": 112.949791,
                    "lat": 27.842173
                },
                "address": "",
                "tel": "",
                "distance": null
            }, {
                "id": "B0FFG33QT5",
                "name": "湘潭职业技术学院第一教学楼(南门)",
                "type": "通行设施;建筑物门;建筑物正门",
                "location": {
                    "w": 27.842703,
                    "r": 112.94898799999999,
                    "lng": 112.948988,
                    "lat": 27.842703
                },
                "address": "双拥中路附近",
                "tel": "",
                "distance": null
            }]
        }, {
            "id": 17360,
            "status": 1,
            "name": "华侨中医院",
            "slug": "huaqiaozhongyiyuan",
            "type": 5,
            "poi": [{
                "id": "B0FFF2HUXV",
                "name": "湖南省中医院",
                "type": "医疗保健服务;综合医院;三级甲等医院",
                "location": {
                    "w": 28.203815,
                    "r": 112.98082599999998,
                    "lng": 112.980826,
                    "lat": 28.203815
                },
                "address": "蔡锷北路233号",
                "tel": "0731-84917729;0731-84912978",
                "distance": 2855
            }, {
                "id": "B02DB04KZF",
                "name": "湖南中医药大学第二附属医院",
                "type": "医疗保健服务;综合医院;三级甲等医院",
                "location": {
                    "w": 28.203611,
                    "r": 112.98074200000002,
                    "lng": 112.980742,
                    "lat": 28.203611
                },
                "address": "蔡锷北路233",
                "tel": "0731-84917729;0731-84917708;0731-84910120",
                "distance": 2837
            }, {
                "id": "B0FFFOGPZV",
                "name": "四医院视光中心",
                "type": "医疗保健服务;综合医院;综合医院",
                "location": {
                    "w": 28.1929,
                    "r": 112.95029,
                    "lng": 112.95029,
                    "lat": 28.1929
                },
                "address": "麓山路",
                "tel": "",
                "distance": 509
            }, {
                "id": "B02DB0X2UT",
                "name": "娄玉方中医院",
                "type": "医疗保健服务;诊所;诊所",
                "location": {
                    "w": 28.192509,
                    "r": 112.95024999999998,
                    "lng": 112.95025,
                    "lat": 28.192509
                },
                "address": "麓山路114号(近市四医院)",
                "tel": "0731-85558441",
                "distance": 502
            }, {
                "id": "B02DB0UME0",
                "name": "湖南中医药大学附属中西医结合医院",
                "type": "医疗保健服务;综合医院;综合医院",
                "location": {
                    "w": 28.194754,
                    "r": 112.95111500000002,
                    "lng": 112.951115,
                    "lat": 28.194754
                },
                "address": "麓山路58-64号",
                "tel": "0731-88883684",
                "distance": 539
            }, {
                "id": "B0FFF66H2F",
                "name": "湖南中医药大学附属中西医结合医院口腔科",
                "type": "医疗保健服务;医药保健销售店;药房|医疗保健服务;综合医院;综合医院",
                "location": {
                    "w": 28.194904,
                    "r": 112.95122500000002,
                    "lng": 112.951225,
                    "lat": 28.194904
                },
                "address": "麓山路54号",
                "tel": "",
                "distance": 542
            }, {
                "id": "B02DB05MKF",
                "name": "三真社区卫生服务中心(新民路)",
                "type": "医疗保健服务;综合医院;卫生院",
                "location": {
                    "w": 28.192379,
                    "r": 112.95216700000003,
                    "lng": 112.952167,
                    "lat": 28.192379
                },
                "address": "新民路143号",
                "tel": "0731-88889120",
                "distance": 316
            }, {
                "id": "B02DB0167A",
                "name": "湖南省中医药研究院附属医院",
                "type": "医疗保健服务;综合医院;三级甲等医院",
                "location": {
                    "w": 28.194741,
                    "r": 112.95111099999997,
                    "lng": 112.951111,
                    "lat": 28.194741
                },
                "address": "麓山路58号",
                "tel": "0731-88883684;0731-88854265",
                "distance": 538
            }, {
                "id": "B02DB01683",
                "name": "佳友动物医院",
                "type": "医疗保健服务;动物医疗场所;宠物诊所",
                "location": {
                    "w": 28.195101,
                    "r": 112.95631600000002,
                    "lng": 112.956316,
                    "lat": 28.195101
                },
                "address": "潇湘中路68号",
                "tel": "0731-88611525;13309501061",
                "distance": 406
            }, {
                "id": "B02DB02639",
                "name": "长沙市第四医院",
                "type": "医疗保健服务;综合医院;综合医院",
                "location": {
                    "w": 28.194192,
                    "r": 112.95081700000003,
                    "lng": 112.950817,
                    "lat": 28.194192
                },
                "address": "麓山路70号",
                "tel": "0731-88835975;0731-88850522",
                "distance": 524
            }]
        }, {
            "id": 17441,
            "status": 1,
            "name": "湘潭市创伤医院",
            "slug": "xiangtanshichuangshangyiyuan",
            "type": 5,
            "poi": [{
                "id": "B02DC01P1W",
                "name": "湘潭市创伤医院",
                "type": "医疗保健服务;专科医院;骨科医院",
                "location": {
                    "w": 27.860298,
                    "r": 112.91389900000001,
                    "lng": 112.913899,
                    "lat": 27.860298
                },
                "address": "雨湖路179号",
                "tel": "",
                "distance": null
            }]
        }, {
            "id": 2229,
            "status": 1,
            "name": "湖南电气职业技术学院",
            "slug": "hunandianqizhiyejishuxueyuan",
            "type": 1,
            "poi": [{
                "id": "B02DC01Q6B",
                "name": "湖南电气职业技术学院",
                "type": "科教文化服务;学校;职业技术学校",
                "location": {
                    "w": 27.811867,
                    "r": 112.92492400000003,
                    "lng": 112.924924,
                    "lat": 27.811867
                },
                "address": "下摄司街295号",
                "tel": "0731-58596575",
                "distance": null
            }, {
                "id": "B02DB05K5I",
                "name": "湖南机电职业技术学院电气工程系",
                "type": "科教文化服务;学校;职业技术学校",
                "location": {
                    "w": 28.261267,
                    "r": 113.06026400000002,
                    "lng": 113.060264,
                    "lat": 28.261267
                },
                "address": "湘龙路35号",
                "tel": "",
                "distance": null
            }, {
                "id": "B02DD0QFA6",
                "name": "湖南铁道职业技术学院-电气工程系",
                "type": "科教文化服务;科教文化场所;科教文化场所",
                "location": {
                    "w": 27.877622,
                    "r": 113.135264,
                    "lng": 113.135264,
                    "lat": 27.877622
                },
                "address": "田心路89号",
                "tel": "",
                "distance": null
            }, {
                "id": "B02DC0NYKZ",
                "name": "妙屋精品",
                "type": "购物服务;专卖店;礼品饰品店",
                "location": {
                    "w": 27.811588,
                    "r": 112.92551400000002,
                    "lng": 112.925514,
                    "lat": 27.811588
                },
                "address": "湖南电气职业技术学院左边8号门面",
                "tel": "13875202054",
                "distance": null
            }, {
                "id": "B02DB0ULNW",
                "name": "共青团湖南机电职院委员会社团之家办公室",
                "type": "政府机构及社会团体;社会团体;共青团",
                "location": {
                    "w": 28.260015,
                    "r": 113.05995100000001,
                    "lng": 113.059951,
                    "lat": 28.260015
                },
                "address": "湖南机电职业技术学院电气工程系附近",
                "tel": "",
                "distance": null
            }]
        }, {
            "id": 17468,
            "status": 1,
            "name": "韶山市文化馆",
            "slug": "shaoshanshiwenhuaguan",
            "type": 3,
            "poi": [{
                "id": "B02DC0OJ1T",
                "name": "韶山市文化馆",
                "type": "科教文化服务;文化宫;文化宫",
                "location": {
                    "w": 27.914676,
                    "r": 112.52945999999997,
                    "lng": 112.52946,
                    "lat": 27.914676
                },
                "address": "新颜路附近",
                "tel": "",
                "distance": null
            }, {
                "id": "B02DC0NTVC",
                "name": "韶山市图书馆(韶山市文化体育广电新闻出版局东)",
                "type": "科教文化服务;图书馆;图书馆",
                "location": {
                    "w": 27.91613,
                    "r": 112.52472,
                    "lng": 112.52472,
                    "lat": 27.91613
                },
                "address": "清溪镇遵义路",
                "tel": "0731-55682448",
                "distance": null
            }, {
                "id": "B0FFG0N6PC",
                "name": "韶山茶文化博物馆",
                "type": "科教文化服务;博物馆;博物馆",
                "location": {
                    "w": 27.897966,
                    "r": 112.53655000000003,
                    "lng": 112.53655,
                    "lat": 27.897966
                },
                "address": "036县道附近",
                "tel": "",
                "distance": null
            }, {
                "id": "B02DC0ODMQ",
                "name": "韶山文艺馆",
                "type": "科教文化服务;文化宫;文化宫",
                "location": {
                    "w": 27.91501,
                    "r": 112.52912000000003,
                    "lng": 112.52912,
                    "lat": 27.91501
                },
                "address": "中国韶山风景名胜区清溪景区内",
                "tel": "",
                "distance": null
            }, {
                "id": "B0FFFWOVE9",
                "name": "韶山金玉堂博物馆",
                "type": "科教文化服务;博物馆;博物馆",
                "location": {
                    "w": 27.913284,
                    "r": 112.53252800000001,
                    "lng": 112.532528,
                    "lat": 27.913284
                },
                "address": "",
                "tel": "",
                "distance": null
            }, {
                "id": "B02DC00VB8",
                "name": "韶山青少年活动中心",
                "type": "科教文化服务;文化宫;文化宫",
                "location": {
                    "w": 27.917192,
                    "r": 112.52549699999997,
                    "lng": 112.525497,
                    "lat": 27.917192
                },
                "address": "厦门大道附近",
                "tel": "",
                "distance": null
            }, {
                "id": "B02DC0NTVP",
                "name": "花园青年活动中心",
                "type": "科教文化服务;文化宫;文化宫",
                "location": {
                    "w": 27.918991,
                    "r": 112.52609899999999,
                    "lng": 112.526099,
                    "lat": 27.918991
                },
                "address": "如意镇如意路",
                "tel": "",
                "distance": null
            }, {
                "id": "B02DC01MSW",
                "name": "龙威书画艺术工作室",
                "type": "科教文化服务;科教文化场所;科教文化场所",
                "location": {
                    "w": 27.92414,
                    "r": 112.53310499999998,
                    "lng": 112.533105,
                    "lat": 27.92414
                },
                "address": "040乡道附近",
                "tel": "",
                "distance": null
            }]
        }, {
            "id": 17356,
            "status": 1,
            "name": "湘潭华侨中西医结合医院",
            "slug": "xiangtanhuaqiaozhongxiyijieheyiyuan",
            "type": 5,
            "poi": [{
                "id": "B02DC01R8E",
                "name": "湘潭华侨中医医院",
                "type": "医疗保健服务;综合医院;综合医院",
                "location": {
                    "w": 27.83459,
                    "r": 112.95604700000001,
                    "lng": 112.956047,
                    "lat": 27.83459
                },
                "address": "吉安路259号",
                "tel": "",
                "distance": null
            }]
        }, {
            "id": 17467,
            "status": 1,
            "name": "韶山市妇幼保健所",
            "slug": "shaoshanshifuyoubaojiansuo",
            "type": 5,
            "poi": [{
                "id": "B02DC0NS14",
                "name": "韶山市妇幼保健所",
                "type": "医疗保健服务;专科医院;专科医院",
                "location": {
                    "w": 27.925891,
                    "r": 112.52995199999998,
                    "lng": 112.529952,
                    "lat": 27.925891
                },
                "address": "清溪镇韶山北路",
                "tel": "0731-55682471",
                "distance": null
            }, {
                "id": "B02DC00APX",
                "name": "韶山市计划生育服务站(迎宾路)",
                "type": "生活服务;生活服务场所;生活服务场所",
                "location": {
                    "w": 27.925838,
                    "r": 112.52996999999999,
                    "lng": 112.52997,
                    "lat": 27.925838
                },
                "address": "韶山北路附近",
                "tel": "",
                "distance": null
            }]
        }, {
            "id": 17464,
            "status": 1,
            "name": "湘潭市韶山医院",
            "slug": "xiangtanshishaoshanyiyuan",
            "type": 5,
            "poi": [{
                "id": "B02DC0183P",
                "name": "湘潭市韶山医院",
                "type": "医疗保健服务;综合医院;综合医院",
                "location": {
                    "w": 27.926756,
                    "r": 112.52456000000001,
                    "lng": 112.52456,
                    "lat": 27.926756
                },
                "address": "民主路7号",
                "tel": "0731-55684120;0731-55682433",
                "distance": null
            }, {
                "id": "B02DC0NS1R",
                "name": "湘潭市韶山医院(西门)",
                "type": "医疗保健服务;综合医院;综合医院",
                "location": {
                    "w": 27.926705,
                    "r": 112.52399000000003,
                    "lng": 112.52399,
                    "lat": 27.926705
                },